"[{"name":"Walmart","rank":1,"year":2015,"industry":"General Merchandisers","sector":"Retailing","headquarters_state":"AR","headquarters_city":"Bentonville","latitude":36.3728538,"longitude":-94.2088172,"employees":2200000.0,"market_value_millions":265344.0,"market_value_billions":265.3,"revenue_millions":485651.0,"revenue_billions":485.7,"profit_millions":16363.0,"profit_billions":16.4}, {"name":"Exxon Mobil","rank":2,"year":2015,"industry":"Petroleum Refining","sector":"Energy","headquarters_state":"TX","headquarters_city":"Irving","latitude":32.8295183,"longitude":-96.9442177,"employees":83700.0,"market_value_millions":356549.0,"market_value_billions":356.5,"revenue_millions":382597.0,"revenue_billions":382.6,"profit_millions":32520.0,"profit_billions":32.5}, {"name":"Chevron","rank":3,"year":2015,"industry":"Petroleum Refining","sector":"Energy","headquarters_state":"CA","headquarters_city":"San Ramon","latitude":37.7648021,"longitude":-121.9544387,"employees":64700.0,"market_value_millions":197381.0,"market_value_billions":197.4,"revenue_millions":203784.0,"revenue_billions":203.8,"profit_millions":19241.0,"profit_billions":19.2}, {"name":"Berkshire Hathaway","rank":4,"year":2015,"industry":"Insurance: Property and Casualty (Stock)","sector":"Financials","headquarters_state":"NE","headquarters_city":"Omaha","latitude":41.2587459,"longitude":-95.9383758,"employees":316000.0,"market_value_millions":357344.0,"market_value_billions":357.3,"revenue_millions":194673.0,"revenue_billions":194.7,"profit_millions":19872.0,"profit_billions":19.9}, {"name":"Apple","rank":5,"year":2015,"industry":"Computers, Office Equipment","sector":"Technology","headquarters_state":"CA","headquarters_city":"Cupertino","latitude":37.3228934,"longitude":-122.0322895,"employees":97200.0,"market_value_millions":724773.0,"market_value_billions":724.8,"revenue_millions":182795.0,"revenue_billions":182.8,"profit_millions":39510.0,"profit_billions":39.5}, {"name":"General Motors","rank":6,"year":2015,"industry":"Motor Vehicles & Parts","sector":"Motor Vehicles & Parts","headquarters_state":"MI","headquarters_city":"Detroit","latitude":42.3315509,"longitude":-83.0466403,"employees":216000.0,"market_value_millions":60389.0,"market_value_billions":60.4,"revenue_millions":155929.0,"revenue_billions":155.9,"profit_millions":3949.0,"profit_billions":3.9}, {"name":"Phillips 66","rank":7,"year":2015,"industry":"Petroleum Refining","sector":"Energy","headquarters_state":"TX","headquarters_city":"Houston","latitude":29.7589382,"longitude":-95.3676974,"employees":14000.0,"market_value_millions":42627.0,"market_value_billions":42.6,"revenue_millions":149434.0,"revenue_billions":149.4,"profit_millions":4762.0,"profit_billions":4.8}, {"name":"General Electric","rank":8,"year":2015,"industry":"Diversified Financials","sector":"Financials","headquarters_state":"CT","headquarters_city":"Fairfield","latitude":39.7886111,"longitude":-82.6418883,"employees":305000.0,"market_value_millions":249775.0,"market_value_billions":249.8,"revenue_millions":148321.0,"revenue_billions":148.3,"profit_millions":15233.0,"profit_billions":15.2}, {"name":"Ford Motor","rank":9,"year":2015,"industry":"Motor Vehicles & Parts","sector":"Motor Vehicles & Parts","headquarters_state":"MI","headquarters_city":"Dearborn","latitude":42.3222599,"longitude":-83.1763145,"employees":187000.0,"market_value_millions":64154.0,"market_value_billions":64.2,"revenue_millions":144077.0,"revenue_billions":144.1,"profit_millions":3187.0,"profit_billions":3.2}, {"name":"CVS Health","rank":10,"year":2015,"industry":"Food & Drug Stores","sector":"Food & Drug Stores","headquarters_state":"RI","headquarters_city":"Woonsocket","latitude":42.0028761,"longitude":-71.5147839,"employees":177800.0,"market_value_millions":117171.0,"market_value_billions":117.2,"revenue_millions":139367.0,"revenue_billions":139.4,"profit_millions":4644.0,"profit_billions":4.6}, {"name":"McKesson","rank":11,"year":2015,"industry":"Wholesalers: Health Care","sector":"Wholesalers","headquarters_state":"CA","headquarters_city":"San Francisco","latitude":37.7790262,"longitude":-122.419906,"employees":42800.0,"market_value_millions":52669.0,"market_value_billions":52.7,"revenue_millions":138030.0,"revenue_billions":138.0,"profit_millions":1263.0,"profit_billions":1.3}, {"name":"AT&T","rank":12,"year":2015,"industry":"Telecommunications","sector":"Telecommunications","headquarters_state":"TX","headquarters_city":"Dallas","latitude":32.7762719,"longitude":-96.7968559,"employees":243620.0,"market_value_millions":169459.0,"market_value_billions":169.5,"revenue_millions":132447.0,"revenue_billions":132.4,"profit_millions":6224.0,"profit_billions":6.2}, {"name":"Valero Energy","rank":13,"year":2015,"industry":"Petroleum Refining","sector":"Energy","headquarters_state":"TX","headquarters_city":"San Antonio","latitude":29.4246002,"longitude":-98.4951405,"employees":10065.0,"market_value_millions":32703.0,"market_value_billions":32.7,"revenue_millions":130844.0,"revenue_billions":130.8,"profit_millions":3630.0,"profit_billions":3.6}, {"name":"UnitedHealth Group","rank":14,"year":2015,"industry":"Health Care: Insurance and Managed Care","sector":"Health Care","headquarters_state":"MN","headquarters_city":"Minnetonka","latitude":44.9405086,"longitude":-93.4638936,"employees":170000.0,"market_value_millions":112813.0,"market_value_billions":112.8,"revenue_millions":130474.0,"revenue_billions":130.5,"profit_millions":5619.0,"profit_billions":5.6}, {"name":"Verizon","rank":15,"year":2015,"industry":"Telecommunications","sector":"Telecommunications","headquarters_state":"NY","headquarters_city":"New York","latitude":40.7127281,"longitude":-74.0060152,"employees":177300.0,"market_value_millions":198410.0,"market_value_billions":198.4,"revenue_millions":127079.0,"revenue_billions":127.1,"profit_millions":9625.0,"profit_billions":9.6}, {"name":"AmerisourceBergen","rank":16,"year":2015,"industry":"Wholesalers: Health Care","sector":"Wholesalers","headquarters_state":"PA","headquarters_city":"Chesterbrook","latitude":40.0756627,"longitude":-75.4590816,"employees":13500.0,"market_value_millions":24963.0,"market_value_billions":25.0,"revenue_millions":119569.0,"revenue_billions":119.6,"profit_millions":277.0,"profit_billions":0.3}, {"name":"Fannie Mae","rank":17,"year":2015,"industry":"Diversified Financials","sector":"Financials","headquarters_state":"DC","headquarters_city":"Washington","latitude":38.8950368,"longitude":-77.0365427,"employees":7600.0,"market_value_millions":2722.0,"market_value_billions":2.7,"revenue_millions":116461.0,"revenue_billions":116.5,"profit_millions":14208.0,"profit_billions":14.2}, {"name":"Costco","rank":18,"year":2015,"industry":"Specialty Retailers: Other","sector":"Retailing","headquarters_state":"WA","headquarters_city":"Issaquah","latitude":47.5348778,"longitude":-122.0432974,"employees":153500.0,"market_value_millions":66654.0,"market_value_billions":66.7,"revenue_millions":112640.0,"revenue_billions":112.6,"profit_millions":2058.0,"profit_billions":2.1}, {"name":"HP","rank":19,"year":2015,"industry":"Computers, Office Equipment","sector":"Technology","headquarters_state":"CA","headquarters_city":"Palo Alto","latitude":37.4443293,"longitude":-122.1598465,"employees":302000.0,"market_value_millions":56635.0,"market_value_billions":56.6,"revenue_millions":111454.0,"revenue_billions":111.5,"profit_millions":5013.0,"profit_billions":5.0}, {"name":"Kroger","rank":20,"year":2015,"industry":"Food & Drug Stores","sector":"Food & Drug Stores","headquarters_state":"OH","headquarters_city":"Cincinnati","latitude":39.1014537,"longitude":-84.5124602,"employees":400000.0,"market_value_millions":37648.0,"market_value_billions":37.6,"revenue_millions":108465.0,"revenue_billions":108.5,"profit_millions":1728.0,"profit_billions":1.7}, {"name":"JP Morgan Chase","rank":21,"year":2015,"industry":"Commercial Banks","sector":"Financials","headquarters_state":"NY","headquarters_city":"New York","latitude":40.7127281,"longitude":-74.0060152,"employees":241359.0,"market_value_millions":225861.0,"market_value_billions":225.9,"revenue_millions":102102.0,"revenue_billions":102.1,"profit_millions":21762.0,"profit_billions":21.8}, {"name":"Express Scripts Holding","rank":22,"year":2015,"industry":"Health Care: Pharmacy and Other Services","sector":"Health Care","headquarters_state":"MO","headquarters_city":"St. Louis","latitude":38.6280278,"longitude":-90.1910154,"employees":29500.0,"market_value_millions":63237.0,"market_value_billions":63.2,"revenue_millions":100887.0,"revenue_billions":100.9,"profit_millions":2008.0,"profit_billions":2.0}, {"name":"Bank of America Corp.","rank":23,"year":2015,"industry":"Commercial Banks","sector":"Financials","headquarters_state":"NC","headquarters_city":"Charlotte","latitude":35.2272086,"longitude":-80.8430827,"employees":223715.0,"market_value_millions":161896.0,"market_value_billions":161.9,"revenue_millions":95181.0,"revenue_billions":95.2,"profit_millions":4833.0,"profit_billions":4.8}, {"name":"IBM","rank":24,"year":2015,"industry":"Information Technology Services","sector":"Technology","headquarters_state":"NY","headquarters_city":"Armonk","latitude":41.1264847,"longitude":-73.7139777,"employees":412775.0,"market_value_millions":158642.0,"market_value_billions":158.6,"revenue_millions":94128.0,"revenue_billions":94.1,"profit_millions":12022.0,"profit_billions":12.0}, {"name":"Marathon Petroleum","rank":25,"year":2015,"industry":"Petroleum Refining","sector":"Energy","headquarters_state":"OH","headquarters_city":"Findlay","latitude":41.0413873,"longitude":-83.6503982,"employees":45340.0,"market_value_millions":27959.0,"market_value_billions":28.0,"revenue_millions":91417.0,"revenue_billions":91.4,"profit_millions":2524.0,"profit_billions":2.5}, {"name":"Cardinal Health","rank":26,"year":2015,"industry":"Wholesalers: Health Care","sector":"Wholesalers","headquarters_state":"OH","headquarters_city":"Dublin","latitude":53.3493795,"longitude":-6.2605593,"employees":34000.0,"market_value_millions":29801.0,"market_value_billions":29.8,"revenue_millions":91084.0,"revenue_billions":91.1,"profit_millions":1166.0,"profit_billions":1.2}, {"name":"Boeing","rank":27,"year":2015,"industry":"Aerospace & Defense","sector":"Aerospace & Defense","headquarters_state":"IL","headquarters_city":"Chicago","latitude":41.8755616,"longitude":-87.6244212,"employees":165500.0,"market_value_millions":105032.0,"market_value_billions":105.0,"revenue_millions":90762.0,"revenue_billions":90.8,"profit_millions":5446.0,"profit_billions":5.4}, {"name":"Citigroup","rank":28,"year":2015,"industry":"Commercial Banks","sector":"Financials","headquarters_state":"NY","headquarters_city":"New York","latitude":40.7127281,"longitude":-74.0060152,"employees":241000.0,"market_value_millions":156304.0,"market_value_billions":156.3,"revenue_millions":90646.0,"revenue_billions":90.6,"profit_millions":7313.0,"profit_billions":7.3}, {"name":"Amazon.com","rank":29,"year":2015,"industry":"Internet Services and Retailing","sector":"Technology","headquarters_state":"WA","headquarters_city":"Seattle","latitude":47.6038321,"longitude":-122.330062,"employees":154100.0,"market_value_millions":172797.0,"market_value_billions":172.8,"revenue_millions":88988.0,"revenue_billions":89.0,"profit_millions":-241.0,"profit_billions":-0.2}, {"name":"Wells Fargo","rank":30,"year":2015,"industry":"Commercial Banks","sector":"Financials","headquarters_state":"CA","headquarters_city":"San Francisco","latitude":37.7790262,"longitude":-122.419906,"employees":264500.0,"market_value_millions":279920.0,"market_value_billions":279.9,"revenue_millions":88372.0,"revenue_billions":88.4,"profit_millions":23057.0,"profit_billions":23.1}, {"name":"Microsoft","rank":31,"year":2015,"industry":"Computer Software","sector":"Technology","headquarters_state":"WA","headquarters_city":"Redmond","latitude":47.6694141,"longitude":-122.1238767,"employees":128000.0,"market_value_millions":333525.0,"market_value_billions":333.5,"revenue_millions":86833.0,"revenue_billions":86.8,"profit_millions":22074.0,"profit_billions":22.1}, {"name":"Procter & Gamble","rank":32,"year":2015,"industry":"Household and Personal Products","sector":"Household Products","headquarters_state":"OH","headquarters_city":"Cincinnati","latitude":39.1014537,"longitude":-84.5124602,"employees":118000.0,"market_value_millions":221280.0,"market_value_billions":221.3,"revenue_millions":84537.0,"revenue_billions":84.5,"profit_millions":11643.0,"profit_billions":11.6}, {"name":"Home Depot","rank":33,"year":2015,"industry":"Specialty Retailers: Other","sector":"Retailing","headquarters_state":"GA","headquarters_city":"Atlanta","latitude":33.7489924,"longitude":-84.3902644,"employees":371000.0,"market_value_millions":148533.0,"market_value_billions":148.5,"revenue_millions":83176.0,"revenue_billions":83.2,"profit_millions":6345.0,"profit_billions":6.3}, {"name":"Archer Daniels Midland","rank":34,"year":2015,"industry":"Food Production","sector":"Food, Beverages & Tobacco","headquarters_state":"IL","headquarters_city":"Chicago","latitude":41.8755616,"longitude":-87.6244212,"employees":33900.0,"market_value_millions":29812.0,"market_value_billions":29.8,"revenue_millions":81201.0,"revenue_billions":81.2,"profit_millions":2248.0,"profit_billions":2.2}, {"name":"Walgreens","rank":35,"year":2015,"industry":"Food & Drug Stores","sector":"Food & Drug Stores","headquarters_state":"IL","headquarters_city":"Deerfield","latitude":42.1711365,"longitude":-87.8445119,"employees":213000.0,"market_value_millions":92365.0,"market_value_billions":92.4,"revenue_millions":76392.0,"revenue_billions":76.4,"profit_millions":1932.0,"profit_billions":1.9}, {"name":"Target","rank":36,"year":2015,"industry":"General Merchandisers","sector":"Retailing","headquarters_state":"MN","headquarters_city":"Minneapolis","latitude":44.9772995,"longitude":-93.2654692,"employees":347000.0,"market_value_millions":52668.0,"market_value_billions":52.7,"revenue_millions":74520.0,"revenue_billions":74.5,"profit_millions":-1636.0,"profit_billions":-1.6}, {"name":"Johnson & Johnson","rank":37,"year":2015,"industry":"Pharmaceuticals","sector":"Health Care","headquarters_state":"NJ","headquarters_city":"New Brunswick","latitude":46.500283,"longitude":-66.750183,"employees":126500.0,"market_value_millions":279717.0,"market_value_billions":279.7,"revenue_millions":74331.0,"revenue_billions":74.3,"profit_millions":16323.0,"profit_billions":16.3}, {"name":"Anthem","rank":38,"year":2015,"industry":"Health Care: Insurance and Managed Care","sector":"Health Care","headquarters_state":"IN","headquarters_city":"Indianapolis","latitude":39.7683331,"longitude":-86.1583502,"employees":51500.0,"market_value_millions":41195.0,"market_value_billions":41.2,"revenue_millions":73874.0,"revenue_billions":73.9,"profit_millions":2570.0,"profit_billions":2.6}, {"name":"MetLife","rank":39,"year":2015,"industry":"Insurance: Life, Health (Stock)","sector":"Financials","headquarters_state":"NY","headquarters_city":"New York","latitude":40.7127281,"longitude":-74.0060152,"employees":68000.0,"market_value_millions":56578.0,"market_value_billions":56.6,"revenue_millions":73316.0,"revenue_billions":73.3,"profit_millions":6309.0,"profit_billions":6.3}, {"name":"Alphabet","rank":40,"year":2015,"industry":"Internet Services and Retailing","sector":"Technology","headquarters_state":"CA","headquarters_city":"Mountain View","latitude":37.3893889,"longitude":-122.0832101,"employees":53600.0,"market_value_millions":377542.0,"market_value_billions":377.5,"revenue_millions":71487.0,"revenue_billions":71.5,"profit_millions":14444.0,"profit_billions":14.4}, {"name":"State Farm Insurance Cos.","rank":41,"year":2015,"industry":"Insurance: Property and Casualty (Mutual)","sector":"Financials","headquarters_state":"IL","headquarters_city":"Bloomington","latitude":39.1670396,"longitude":-86.5342881,"employees":73262.0,"market_value_millions":null,"market_value_billions":null,"revenue_millions":71160.0,"revenue_billions":71.2,"profit_millions":4191.0,"profit_billions":4.2}, {"name":"Freddie Mac","rank":42,"year":2015,"industry":"Diversified Financials","sector":"Financials","headquarters_state":"VA","headquarters_city":"McLean","latitude":40.4631789,"longitude":-88.8196613,"employees":4982.0,"market_value_millions":1482.0,"market_value_billions":1.5,"revenue_millions":69367.0,"revenue_billions":69.4,"profit_millions":7690.0,"profit_billions":7.7}, {"name":"Comcast","rank":43,"year":2015,"industry":"Telecommunications","sector":"Telecommunications","headquarters_state":"PA","headquarters_city":"Philadelphia","latitude":39.9527237,"longitude":-75.1635262,"employees":139000.0,"market_value_millions":143494.0,"market_value_billions":143.5,"revenue_millions":68775.0,"revenue_billions":68.8,"profit_millions":8380.0,"profit_billions":8.4}, {"name":"PepsiCo","rank":44,"year":2015,"industry":"Food Consumer Products","sector":"Food, Beverages & Tobacco","headquarters_state":"NY","headquarters_city":"Purchase","latitude":41.0409305,"longitude":-73.7145746,"employees":271000.0,"market_value_millions":141744.0,"market_value_billions":141.7,"revenue_millions":66683.0,"revenue_billions":66.7,"profit_millions":6513.0,"profit_billions":6.5}, {"name":"United Technologies","rank":45,"year":2015,"industry":"Aerospace & Defense","sector":"Aerospace & Defense","headquarters_state":"CT","headquarters_city":"Hartford","latitude":41.764582,"longitude":-72.6908547,"employees":211500.0,"market_value_millions":106470.0,"market_value_billions":106.5,"revenue_millions":65100.0,"revenue_billions":65.1,"profit_millions":6220.0,"profit_billions":6.2}, {"name":"AIG","rank":46,"year":2015,"industry":"Insurance: Property and Casualty (Stock)","sector":"Financials","headquarters_state":"NY","headquarters_city":"New York","latitude":40.7127281,"longitude":-74.0060152,"employees":65000.0,"market_value_millions":74184.0,"market_value_billions":74.2,"revenue_millions":64406.0,"revenue_billions":64.4,"profit_millions":7529.0,"profit_billions":7.5}, {"name":"UPS","rank":47,"year":2015,"industry":"Mail, Package, and Freight Delivery","sector":"Transportation","headquarters_state":"GA","headquarters_city":"Atlanta","latitude":33.7489924,"longitude":-84.3902644,"employees":336150.0,"market_value_millions":87492.0,"market_value_billions":87.5,"revenue_millions":58232.0,"revenue_billions":58.2,"profit_millions":3032.0,"profit_billions":3.0}, {"name":"Dow Chemical","rank":48,"year":2015,"industry":"Chemicals","sector":"Chemicals","headquarters_state":"MI","headquarters_city":"Midland","latitude":31.83688,"longitude":-102.0103767,"employees":53216.0,"market_value_millions":55546.0,"market_value_billions":55.5,"revenue_millions":58167.0,"revenue_billions":58.2,"profit_millions":3772.0,"profit_billions":3.8}, {"name":"Aetna","rank":49,"year":2015,"industry":"Health Care: Insurance and Managed Care","sector":"Health Care","headquarters_state":"CT","headquarters_city":"Hartford","latitude":41.764582,"longitude":-72.6908547,"employees":48800.0,"market_value_millions":37147.0,"market_value_billions":37.1,"revenue_millions":58003.0,"revenue_billions":58.0,"profit_millions":2041.0,"profit_billions":2.0}, {"name":"Lowe's","rank":50,"year":2015,"industry":"Specialty Retailers: Other","sector":"Retailing","headquarters_state":"NC","headquarters_city":"Mooresville","latitude":35.5848596,"longitude":-80.8100724,"employees":220500.0,"market_value_millions":70797.0,"market_value_billions":70.8,"revenue_millions":56223.0,"revenue_billions":56.2,"profit_millions":2698.0,"profit_billions":2.7}, {"name":"ConocoPhillips","rank":51,"year":2015,"industry":"Mining, Crude-Oil Production","sector":"Energy","headquarters_state":"TX","headquarters_city":"Houston","latitude":29.7589382,"longitude":-95.3676974,"employees":19100.0,"market_value_millions":76671.0,"market_value_billions":76.7,"revenue_millions":55997.0,"revenue_billions":56.0,"profit_millions":6869.0,"profit_billions":6.9}, {"name":"Intel","rank":52,"year":2015,"industry":"Semiconductors and Other Electronic Components","sector":"Technology","headquarters_state":"CA","headquarters_city":"Santa Clara","latitude":37.2333253,"longitude":-121.6846349,"employees":106700.0,"market_value_millions":148095.0,"market_value_billions":148.1,"revenue_millions":55870.0,"revenue_billions":55.9,"profit_millions":11704.0,"profit_billions":11.7}, {"name":"Energy Transfer Equity","rank":53,"year":2015,"industry":"Pipelines","sector":"Energy","headquarters_state":"TX","headquarters_city":"Dallas","latitude":32.7762719,"longitude":-96.7968559,"employees":27605.0,"market_value_millions":34137.0,"market_value_billions":34.1,"revenue_millions":55691.0,"revenue_billions":55.7,"profit_millions":633.0,"profit_billions":0.6}, {"name":"Caterpillar","rank":54,"year":2015,"industry":"Construction and Farm Machinery","sector":"Industrials","headquarters_state":"IL","headquarters_city":"Peoria","latitude":40.6938609,"longitude":-89.5891008,"employees":114233.0,"market_value_millions":48512.0,"market_value_billions":48.5,"revenue_millions":55184.0,"revenue_billions":55.2,"profit_millions":3695.0,"profit_billions":3.7}, {"name":"Prudential Financial","rank":55,"year":2015,"industry":"Insurance: Life, Health (Stock)","sector":"Financials","headquarters_state":"NJ","headquarters_city":"Newark","latitude":40.735657,"longitude":-74.1723667,"employees":48331.0,"market_value_millions":36461.0,"market_value_billions":36.5,"revenue_millions":54123.0,"revenue_billions":54.1,"profit_millions":1381.0,"profit_billions":1.4}, {"name":"Pfizer","rank":56,"year":2015,"industry":"Pharmaceuticals","sector":"Health Care","headquarters_state":"NY","headquarters_city":"New York","latitude":40.7127281,"longitude":-74.0060152,"employees":78300.0,"market_value_millions":213622.0,"market_value_billions":213.6,"revenue_millions":49605.0,"revenue_billions":49.6,"profit_millions":9135.0,"profit_billions":9.1}, {"name":"Walt Disney","rank":57,"year":2015,"industry":"Entertainment","sector":"Media","headquarters_state":"CA","headquarters_city":"Burbank","latitude":34.1812089,"longitude":-118.307201,"employees":180000.0,"market_value_millions":178267.0,"market_value_billions":178.3,"revenue_millions":48813.0,"revenue_billions":48.8,"profit_millions":7501.0,"profit_billions":7.5}, {"name":"Humana","rank":58,"year":2015,"industry":"Health Care: Insurance and Managed Care","sector":"Health Care","headquarters_state":"KY","headquarters_city":"Louisville","latitude":38.2542376,"longitude":-85.759407,"employees":57000.0,"market_value_millions":26633.0,"market_value_billions":26.6,"revenue_millions":48500.0,"revenue_billions":48.5,"profit_millions":1147.0,"profit_billions":1.1}, {"name":"Enterprise Products Partners","rank":59,"year":2015,"industry":"Pipelines","sector":"Energy","headquarters_state":"TX","headquarters_city":"Houston","latitude":29.7589382,"longitude":-95.3676974,"employees":6900.0,"market_value_millions":67355.0,"market_value_billions":67.4,"revenue_millions":47951.0,"revenue_billions":48.0,"profit_millions":2787.0,"profit_billions":2.8}, {"name":"Cisco Systems","rank":60,"year":2015,"industry":"Network and Other Communications Equipment","sector":"Technology","headquarters_state":"CA","headquarters_city":"San Jose","latitude":37.3361663,"longitude":-121.890591,"employees":74042.0,"market_value_millions":140508.0,"market_value_billions":140.5,"revenue_millions":47142.0,"revenue_billions":47.1,"profit_millions":7853.0,"profit_billions":7.9}, {"name":"Sysco","rank":61,"year":2015,"industry":"Wholesalers: Food and Grocery","sector":"Wholesalers","headquarters_state":"TX","headquarters_city":"Houston","latitude":29.7589382,"longitude":-95.3676974,"employees":50300.0,"market_value_millions":22349.0,"market_value_billions":22.3,"revenue_millions":46517.0,"revenue_billions":46.5,"profit_millions":932.0,"profit_billions":0.9}, {"name":"Ingram Micro","rank":62,"year":2015,"industry":"Wholesalers: Electronics and Office Equipment","sector":"Wholesalers","headquarters_state":"CA","headquarters_city":"Santa Ana","latitude":33.7494951,"longitude":-117.8732213,"employees":21700.0,"market_value_millions":3925.0,"market_value_billions":3.9,"revenue_millions":46487.0,"revenue_billions":46.5,"profit_millions":267.0,"profit_billions":0.3}, {"name":"Coca-Cola","rank":63,"year":2015,"industry":"Beverages","sector":"Food, Beverages & Tobacco","headquarters_state":"GA","headquarters_city":"Atlanta","latitude":33.7489924,"longitude":-84.3902644,"employees":129200.0,"market_value_millions":177142.0,"market_value_billions":177.1,"revenue_millions":45998.0,"revenue_billions":46.0,"profit_millions":7098.0,"profit_billions":7.1}, {"name":"Lockheed Martin","rank":64,"year":2015,"industry":"Aerospace & Defense","sector":"Aerospace & Defense","headquarters_state":"MD","headquarters_city":"Bethesda","latitude":38.9846816,"longitude":-77.0942447,"employees":112000.0,"market_value_millions":64193.0,"market_value_billions":64.2,"revenue_millions":45600.0,"revenue_billions":45.6,"profit_millions":3614.0,"profit_billions":3.6}, {"name":"FedEx","rank":65,"year":2015,"industry":"Mail, Package, and Freight Delivery","sector":"Transportation","headquarters_state":"TN","headquarters_city":"Memphis","latitude":35.1460249,"longitude":-90.0517638,"employees":298099.0,"market_value_millions":46948.0,"market_value_billions":46.9,"revenue_millions":45567.0,"revenue_billions":45.6,"profit_millions":2097.0,"profit_billions":2.1}, {"name":"Johnson Controls","rank":66,"year":2015,"industry":"Motor Vehicles & Parts","sector":"Motor Vehicles & Parts","headquarters_state":"WI","headquarters_city":"Milwaukee","latitude":43.0349931,"longitude":-87.922497,"employees":168000.0,"market_value_millions":33154.0,"market_value_billions":33.2,"revenue_millions":43855.0,"revenue_billions":43.9,"profit_millions":1215.0,"profit_billions":1.2}, {"name":"Plains GP Holdings","rank":67,"year":2015,"industry":"Pipelines","sector":"Energy","headquarters_state":"TX","headquarters_city":"Houston","latitude":29.7589382,"longitude":-95.3676974,"employees":5300.0,"market_value_millions":17361.0,"market_value_billions":17.4,"revenue_millions":43464.0,"revenue_billions":43.5,"profit_millions":70.0,"profit_billions":0.1}, {"name":"World Fuel Services","rank":68,"year":2015,"industry":"Wholesalers: Diversified","sector":"Wholesalers","headquarters_state":"FL","headquarters_city":"Miami","latitude":25.7741728,"longitude":-80.19362,"employees":4041.0,"market_value_millions":4144.0,"market_value_billions":4.1,"revenue_millions":43386.0,"revenue_billions":43.4,"profit_millions":222.0,"profit_billions":0.2}, {"name":"CHS","rank":69,"year":2015,"industry":"Food Production","sector":"Food, Beverages & Tobacco","headquarters_state":"MN","headquarters_city":"Inver Grove Heights","latitude":44.8479039,"longitude":-93.0428119,"employees":11824.0,"market_value_millions":null,"market_value_billions":null,"revenue_millions":42664.0,"revenue_billions":42.7,"profit_millions":1081.0,"profit_billions":1.1}, {"name":"American Airlines Group","rank":70,"year":2015,"industry":"Airlines","sector":"Transportation","headquarters_state":"TX","headquarters_city":"Fort Worth","latitude":32.753177,"longitude":-97.3327459,"employees":113300.0,"market_value_millions":36769.0,"market_value_billions":36.8,"revenue_millions":42650.0,"revenue_billions":42.6,"profit_millions":2882.0,"profit_billions":2.9}, {"name":"Merck","rank":71,"year":2015,"industry":"Pharmaceuticals","sector":"Health Care","headquarters_state":"NJ","headquarters_city":"Kenilworth","latitude":42.0894728,"longitude":-87.7149295,"employees":70000.0,"market_value_millions":163139.0,"market_value_billions":163.1,"revenue_millions":42237.0,"revenue_billions":42.2,"profit_millions":11920.0,"profit_billions":11.9}, {"name":"Best Buy","rank":72,"year":2015,"industry":"Specialty Retailers: Other","sector":"Retailing","headquarters_state":"MN","headquarters_city":"Richfield","latitude":44.8766431,"longitude":-93.2877877,"employees":125000.0,"market_value_millions":13309.0,"market_value_billions":13.3,"revenue_millions":41903.0,"revenue_billions":41.9,"profit_millions":1233.0,"profit_billions":1.2}, {"name":"Delta Air Lines","rank":73,"year":2015,"industry":"Airlines","sector":"Transportation","headquarters_state":"GA","headquarters_city":"Atlanta","latitude":33.7489924,"longitude":-84.3902644,"employees":79655.0,"market_value_millions":37059.0,"market_value_billions":37.1,"revenue_millions":40362.0,"revenue_billions":40.4,"profit_millions":659.0,"profit_billions":0.7}, {"name":"Honeywell International","rank":74,"year":2015,"industry":"Electronics, Electrical Equipment","sector":"Industrials","headquarters_state":"NJ","headquarters_city":"Morris Township","latitude":40.798799,"longitude":-74.52084688,"employees":127000.0,"market_value_millions":81427.0,"market_value_billions":81.4,"revenue_millions":40306.0,"revenue_billions":40.3,"profit_millions":4239.0,"profit_billions":4.2}, {"name":"HCA Holdings","rank":75,"year":2015,"industry":"Health Care: Medical Facilities","sector":"Health Care","headquarters_state":"TN","headquarters_city":"Nashville","latitude":36.1622767,"longitude":-86.7742984,"employees":197000.0,"market_value_millions":31559.0,"market_value_billions":31.6,"revenue_millions":40087.0,"revenue_billions":40.1,"profit_millions":1875.0,"profit_billions":1.9}, {"name":"Goldman Sachs Group","rank":76,"year":2015,"industry":"Commercial Banks","sector":"Financials","headquarters_state":"NY","headquarters_city":"New York","latitude":40.7127281,"longitude":-74.0060152,"employees":34000.0,"market_value_millions":81884.0,"market_value_billions":81.9,"revenue_millions":40085.0,"revenue_billions":40.1,"profit_millions":8477.0,"profit_billions":8.5}, {"name":"Tesoro","rank":77,"year":2015,"industry":"Petroleum Refining","sector":"Energy","headquarters_state":"TX","headquarters_city":"San Antonio","latitude":29.4246002,"longitude":-98.4951405,"employees":5641.0,"market_value_millions":11479.0,"market_value_billions":11.5,"revenue_millions":40052.0,"revenue_billions":40.1,"profit_millions":843.0,"profit_billions":0.8}, {"name":"Liberty Mutual Insurance Group","rank":78,"year":2015,"industry":"Insurance: Property and Casualty (Stock)","sector":"Financials","headquarters_state":"MA","headquarters_city":"Boston","latitude":42.3554334,"longitude":-71.060511,"employees":50000.0,"market_value_millions":null,"market_value_billions":null,"revenue_millions":39796.0,"revenue_billions":39.8,"profit_millions":1833.0,"profit_billions":1.8}, {"name":"United Continental Holdings","rank":79,"year":2015,"industry":"Airlines","sector":"Transportation","headquarters_state":"IL","headquarters_city":"Chicago","latitude":41.8755616,"longitude":-87.6244212,"employees":84000.0,"market_value_millions":25839.0,"market_value_billions":25.8,"revenue_millions":38901.0,"revenue_billions":38.9,"profit_millions":1132.0,"profit_billions":1.1}, {"name":"New York Life Insurance","rank":80,"year":2015,"industry":"Insurance: Life, Health (Mutual)","sector":"Financials","headquarters_state":"NY","headquarters_city":"New York","latitude":40.7127281,"longitude":-74.0060152,"employees":11563.0,"market_value_millions":null,"market_value_billions":null,"revenue_millions":38680.0,"revenue_billions":38.7,"profit_millions":1602.0,"profit_billions":1.6}, {"name":"Oracle","rank":81,"year":2015,"industry":"Computer Software","sector":"Technology","headquarters_state":"CA","headquarters_city":"Redwood City","latitude":37.4863239,"longitude":-122.232523,"employees":122000.0,"market_value_millions":188439.0,"market_value_billions":188.4,"revenue_millions":38275.0,"revenue_billions":38.3,"profit_millions":10955.0,"profit_billions":11.0}, {"name":"Morgan Stanley","rank":82,"year":2015,"industry":"Commercial Banks","sector":"Financials","headquarters_state":"NY","headquarters_city":"New York","latitude":40.7127281,"longitude":-74.0060152,"employees":55802.0,"market_value_millions":70545.0,"market_value_billions":70.5,"revenue_millions":37953.0,"revenue_billions":38.0,"profit_millions":3467.0,"profit_billions":3.5}, {"name":"Tyson Foods","rank":83,"year":2015,"industry":"Food Production","sector":"Food, Beverages & Tobacco","headquarters_state":"AR","headquarters_city":"Springdale","latitude":36.1867442,"longitude":-94.1288142,"employees":124000.0,"market_value_millions":15565.0,"market_value_billions":15.6,"revenue_millions":37580.0,"revenue_billions":37.6,"profit_millions":864.0,"profit_billions":0.9}, {"name":"Safeway","rank":84,"year":2015,"industry":"Food & Drug Stores","sector":"Food & Drug Stores","headquarters_state":"CA","headquarters_city":"Pleasanton","latitude":37.6624312,"longitude":-121.8746789,"employees":137000.0,"market_value_millions":null,"market_value_billions":null,"revenue_millions":36643.0,"revenue_billions":36.6,"profit_millions":113.0,"profit_billions":0.1}, {"name":"Nationwide","rank":85,"year":2015,"industry":"Insurance: Property and Casualty (Mutual)","sector":"Financials","headquarters_state":"OH","headquarters_city":"Columbus","latitude":39.9622601,"longitude":-83.0007065,"employees":33672.0,"market_value_millions":null,"market_value_billions":null,"revenue_millions":36257.0,"revenue_billions":36.3,"profit_millions":432.0,"profit_billions":0.4}, {"name":"Deere","rank":86,"year":2015,"industry":"Construction and Farm Machinery","sector":"Industrials","headquarters_state":"IL","headquarters_city":"Moline","latitude":41.5058344,"longitude":-90.5136642,"employees":59623.0,"market_value_millions":29770.0,"market_value_billions":29.8,"revenue_millions":36067.0,"revenue_billions":36.1,"profit_millions":3162.0,"profit_billions":3.2}, {"name":"DuPont","rank":87,"year":2015,"industry":"Chemicals","sector":"Chemicals","headquarters_state":"DE","headquarters_city":"Wilmington","latitude":39.7459468,"longitude":-75.546589,"employees":63000.0,"market_value_millions":64710.0,"market_value_billions":64.7,"revenue_millions":36046.0,"revenue_billions":36.0,"profit_millions":3625.0,"profit_billions":3.6}, {"name":"American Express","rank":88,"year":2015,"industry":"Commercial Banks","sector":"Financials","headquarters_state":"NY","headquarters_city":"New York","latitude":40.7127281,"longitude":-74.0060152,"employees":54000.0,"market_value_millions":79618.0,"market_value_billions":79.6,"revenue_millions":35999.0,"revenue_billions":36.0,"profit_millions":5885.0,"profit_billions":5.9}, {"name":"Allstate","rank":89,"year":2015,"industry":"Insurance: Property and Casualty (Stock)","sector":"Financials","headquarters_state":"IL","headquarters_city":"Northbrook","latitude":42.128704,"longitude":-87.8265089,"employees":39950.0,"market_value_millions":29637.0,"market_value_billions":29.6,"revenue_millions":35239.0,"revenue_billions":35.2,"profit_millions":2850.0,"profit_billions":2.8}, {"name":"Cigna","rank":90,"year":2015,"industry":"Health Care: Insurance and Managed Care","sector":"Health Care","headquarters_state":"CT","headquarters_city":"Bloomfield","latitude":40.7510398,"longitude":-92.4143872,"employees":37200.0,"market_value_millions":33453.0,"market_value_billions":33.5,"revenue_millions":34914.0,"revenue_billions":34.9,"profit_millions":2102.0,"profit_billions":2.1}, {"name":"Mondelez International","rank":91,"year":2015,"industry":"Food Consumer Products","sector":"Food, Beverages & Tobacco","headquarters_state":"IL","headquarters_city":"Deerfield","latitude":42.1711365,"longitude":-87.8445119,"employees":104000.0,"market_value_millions":59181.0,"market_value_billions":59.2,"revenue_millions":34244.0,"revenue_billions":34.2,"profit_millions":2184.0,"profit_billions":2.2}, {"name":"TIAA-CREF","rank":92,"year":2015,"industry":"Insurance: Life, Health (Mutual)","sector":"Financials","headquarters_state":"NY","headquarters_city":"New York","latitude":40.7127281,"longitude":-74.0060152,"employees":12322.0,"market_value_millions":null,"market_value_billions":null,"revenue_millions":34230.0,"revenue_billions":34.2,"profit_millions":967.0,"profit_billions":1.0}, {"name":"INTL FCStone","rank":93,"year":2015,"industry":"Diversified Financials","sector":"Financials","headquarters_state":"NY","headquarters_city":"New York","latitude":40.7127281,"longitude":-74.0060152,"employees":1141.0,"market_value_millions":561.0,"market_value_billions":0.6,"revenue_millions":34063.0,"revenue_billions":34.1,"profit_millions":19.0,"profit_billions":0.0}, {"name":"Massachusetts Mutual Life Insurance","rank":94,"year":2015,"industry":"Insurance: Life, Health (Mutual)","sector":"Financials","headquarters_state":"MA","headquarters_city":"Springfield","latitude":39.7990175,"longitude":-89.6439575,"employees":11418.0,"market_value_millions":null,"market_value_billions":null,"revenue_millions":33572.0,"revenue_billions":33.6,"profit_millions":1327.0,"profit_billions":1.3}, {"name":"DirecTV","rank":95,"year":2015,"industry":"Telecommunications","sector":"Telecommunications","headquarters_state":"CA","headquarters_city":"El Segundo","latitude":33.917028,"longitude":-118.4156337,"employees":30925.0,"market_value_millions":42788.0,"market_value_billions":42.8,"revenue_millions":33260.0,"revenue_billions":33.3,"profit_millions":2756.0,"profit_billions":2.8}, {"name":"Halliburton","rank":96,"year":2015,"industry":"Oil and Gas Equipment, Services","sector":"Energy","headquarters_state":"TX","headquarters_city":"Houston","latitude":29.7589382,"longitude":-95.3676974,"employees":80000.0,"market_value_millions":37284.0,"market_value_billions":37.3,"revenue_millions":32870.0,"revenue_billions":32.9,"profit_millions":3500.0,"profit_billions":3.5}, {"name":"Twenty-First Century Fox","rank":97,"year":2015,"industry":"Entertainment","sector":"Media","headquarters_state":"NY","headquarters_city":"New York","latitude":40.7127281,"longitude":-74.0060152,"employees":27000.0,"market_value_millions":71948.0,"market_value_billions":71.9,"revenue_millions":31867.0,"revenue_billions":31.9,"profit_millions":4514.0,"profit_billions":4.5}, {"name":"3M","rank":98,"year":2015,"industry":"zMiscellaneous","sector":"Household Products","headquarters_state":"MN","headquarters_city":"St. Paul","latitude":53.9446204,"longitude":-111.2100163,"employees":89800.0,"market_value_millions":104796.0,"market_value_billions":104.8,"revenue_millions":31821.0,"revenue_billions":31.8,"profit_millions":4956.0,"profit_billions":5.0}, {"name":"Sears Holdings","rank":99,"year":2015,"industry":"General Merchandisers","sector":"Retailing","headquarters_state":"IL","headquarters_city":"Hoffman Estates","latitude":42.0427256,"longitude":-88.0792782,"employees":196000.0,"market_value_millions":4409.0,"market_value_billions":4.4,"revenue_millions":31198.0,"revenue_billions":31.2,"profit_millions":-1682.0,"profit_billions":-1.7}, {"name":"General Dynamics","rank":100,"year":2015,"industry":"Aerospace & Defense","sector":"Aerospace & Defense","headquarters_state":"VA","headquarters_city":"Falls Church","latitude":38.882334,"longitude":-77.1710914,"employees":99500.0,"market_value_millions":44816.0,"market_value_billions":44.8,"revenue_millions":30852.0,"revenue_billions":30.9,"profit_millions":2533.0,"profit_billions":2.5}, {"name":"Publix Super Markets","rank":101,"year":2015,"industry":"Food & Drug Stores","sector":"Food & Drug Stores","headquarters_state":"FL","headquarters_city":"Lakeland","latitude":28.0394654,"longitude":-81.9498042,"employees":175000.0,"market_value_millions":null,"market_value_billions":null,"revenue_millions":30803.0,"revenue_billions":30.8,"profit_millions":1735.0,"profit_billions":1.7}, {"name":"Philip Morris International","rank":102,"year":2015,"industry":"Tobacco","sector":"Food, Beverages & Tobacco","headquarters_state":"NY","headquarters_city":"New York","latitude":40.7127281,"longitude":-74.0060152,"employees":82500.0,"market_value_millions":116693.0,"market_value_billions":116.7,"revenue_millions":29767.0,"revenue_billions":29.8,"profit_millions":7493.0,"profit_billions":7.5}, {"name":"TJX","rank":103,"year":2015,"industry":"Specialty Retailers: Apparel","sector":"Retailing","headquarters_state":"MA","headquarters_city":"Framingham","latitude":42.2773177,"longitude":-71.4165905,"employees":198000.0,"market_value_millions":47877.0,"market_value_billions":47.9,"revenue_millions":29078.0,"revenue_billions":29.1,"profit_millions":2215.0,"profit_billions":2.2}, {"name":"Time Warner","rank":104,"year":2015,"industry":"Entertainment","sector":"Media","headquarters_state":"NY","headquarters_city":"New York","latitude":40.7127281,"longitude":-74.0060152,"employees":25600.0,"market_value_millions":70129.0,"market_value_billions":70.1,"revenue_millions":28774.0,"revenue_billions":28.8,"profit_millions":3827.0,"profit_billions":3.8}, {"name":"Macy's","rank":105,"year":2015,"industry":"General Merchandisers","sector":"Retailing","headquarters_state":"OH","headquarters_city":"Cincinnati","latitude":39.1014537,"longitude":-84.5124602,"employees":166900.0,"market_value_millions":22143.0,"market_value_billions":22.1,"revenue_millions":28105.0,"revenue_billions":28.1,"profit_millions":1526.0,"profit_billions":1.5}, {"name":"Nike","rank":106,"year":2015,"industry":"Apparel","sector":"Apparel","headquarters_state":"OR","headquarters_city":"Beaverton","latitude":45.4871723,"longitude":-122.80378,"employees":56500.0,"market_value_millions":86679.0,"market_value_billions":86.7,"revenue_millions":27799.0,"revenue_billions":27.8,"profit_millions":2693.0,"profit_billions":2.7}, {"name":"Tech Data","rank":107,"year":2015,"industry":"Wholesalers: Electronics and Office Equipment","sector":"Wholesalers","headquarters_state":"FL","headquarters_city":"Clearwater","latitude":27.9658533,"longitude":-82.8001026,"employees":8900.0,"market_value_millions":2116.0,"market_value_billions":2.1,"revenue_millions":27671.0,"revenue_billions":27.7,"profit_millions":175.0,"profit_billions":0.2}, {"name":"Avnet","rank":108,"year":2015,"industry":"Wholesalers: Electronics and Office Equipment","sector":"Wholesalers","headquarters_state":"AZ","headquarters_city":"Phoenix","latitude":40.3936294,"longitude":47.7872508,"employees":19000.0,"market_value_millions":6069.0,"market_value_billions":6.1,"revenue_millions":27500.0,"revenue_billions":27.5,"profit_millions":546.0,"profit_billions":0.5}, {"name":"Northwestern Mutual","rank":109,"year":2015,"industry":"Insurance: Life, Health (Mutual)","sector":"Financials","headquarters_state":"WI","headquarters_city":"Milwaukee","latitude":43.0349931,"longitude":-87.922497,"employees":5187.0,"market_value_millions":null,"market_value_billions":null,"revenue_millions":27465.0,"revenue_billions":27.5,"profit_millions":679.0,"profit_billions":0.7}, {"name":"McDonald's","rank":110,"year":2015,"industry":"Food Services","sector":"Hotels, Restaurants & Leisure","headquarters_state":"IL","headquarters_city":"Oak Brook","latitude":41.8328085,"longitude":-87.9289504,"employees":420000.0,"market_value_millions":93651.0,"market_value_billions":93.7,"revenue_millions":27441.0,"revenue_billions":27.4,"profit_millions":4758.0,"profit_billions":4.8}, {"name":"Exelon","rank":111,"year":2015,"industry":"Utilities: Gas and Electric","sector":"Energy","headquarters_state":"IL","headquarters_city":"Chicago","latitude":41.8755616,"longitude":-87.6244212,"employees":28993.0,"market_value_millions":28899.0,"market_value_billions":28.9,"revenue_millions":27429.0,"revenue_billions":27.4,"profit_millions":1623.0,"profit_billions":1.6}, {"name":"Travelers Cos.","rank":112,"year":2015,"industry":"Insurance: Property and Casualty (Stock)","sector":"Financials","headquarters_state":"NY","headquarters_city":"New York","latitude":40.7127281,"longitude":-74.0060152,"employees":30200.0,"market_value_millions":34750.0,"market_value_billions":34.8,"revenue_millions":27162.0,"revenue_billions":27.2,"profit_millions":3692.0,"profit_billions":3.7}, {"name":"Qualcomm","rank":113,"year":2015,"industry":"Network and Other Communications Equipment","sector":"Technology","headquarters_state":"CA","headquarters_city":"San Diego","latitude":32.7174202,"longitude":-117.162772,"employees":31300.0,"market_value_millions":114381.0,"market_value_billions":114.4,"revenue_millions":26487.0,"revenue_billions":26.5,"profit_millions":7967.0,"profit_billions":8.0}, {"name":"International Paper","rank":114,"year":2015,"industry":"Packaging, Containers","sector":"Materials","headquarters_state":"TN","headquarters_city":"Memphis","latitude":35.1460249,"longitude":-90.0517638,"employees":58000.0,"market_value_millions":23464.0,"market_value_billions":23.5,"revenue_millions":26221.0,"revenue_billions":26.2,"profit_millions":555.0,"profit_billions":0.6}, {"name":"Occidental Petroleum","rank":115,"year":2015,"industry":"Mining, Crude-Oil Production","sector":"Energy","headquarters_state":"TX","headquarters_city":"Houston","latitude":29.7589382,"longitude":-95.3676974,"employees":11700.0,"market_value_millions":56250.0,"market_value_billions":56.2,"revenue_millions":25898.0,"revenue_billions":25.9,"profit_millions":616.0,"profit_billions":0.6}, {"name":"Duke Energy","rank":116,"year":2015,"industry":"Utilities: Gas and Electric","sector":"Energy","headquarters_state":"NC","headquarters_city":"Charlotte","latitude":35.2272086,"longitude":-80.8430827,"employees":28344.0,"market_value_millions":54362.0,"market_value_billions":54.4,"revenue_millions":25673.0,"revenue_billions":25.7,"profit_millions":1883.0,"profit_billions":1.9}, {"name":"Rite Aid","rank":117,"year":2015,"industry":"Food & Drug Stores","sector":"Food & Drug Stores","headquarters_state":"PA","headquarters_city":"Camp Hill","latitude":40.2398118,"longitude":-76.9199742,"employees":69420.0,"market_value_millions":8532.0,"market_value_billions":8.5,"revenue_millions":25526.0,"revenue_billions":25.5,"profit_millions":249.0,"profit_billions":0.2}, {"name":"Gilead Sciences","rank":118,"year":2015,"industry":"Pharmaceuticals","sector":"Health Care","headquarters_state":"CA","headquarters_city":"Foster City","latitude":37.5600336,"longitude":-122.2688522,"employees":7000.0,"market_value_millions":145533.0,"market_value_billions":145.5,"revenue_millions":24890.0,"revenue_billions":24.9,"profit_millions":12101.0,"profit_billions":12.1}, {"name":"Baker Hughes","rank":119,"year":2015,"industry":"Oil and Gas Equipment, Services","sector":"Energy","headquarters_state":"TX","headquarters_city":"Houston","latitude":29.7589382,"longitude":-95.3676974,"employees":62000.0,"market_value_millions":27627.0,"market_value_billions":27.6,"revenue_millions":24551.0,"revenue_billions":24.6,"profit_millions":1719.0,"profit_billions":1.7}, {"name":"Emerson Electric","rank":120,"year":2015,"industry":"Electronics, Electrical Equipment","sector":"Industrials","headquarters_state":"MO","headquarters_city":"St. Louis","latitude":38.6280278,"longitude":-90.1910154,"employees":115100.0,"market_value_millions":38796.0,"market_value_billions":38.8,"revenue_millions":24537.0,"revenue_billions":24.5,"profit_millions":2147.0,"profit_billions":2.1}, {"name":"EMC","rank":121,"year":2015,"industry":"Computer Peripherals","sector":"Technology","headquarters_state":"MA","headquarters_city":"Hopkinton","latitude":42.344072,"longitude":-91.2482814,"employees":70000.0,"market_value_millions":50816.0,"market_value_billions":50.8,"revenue_millions":24440.0,"revenue_billions":24.4,"profit_millions":2714.0,"profit_billions":2.7}, {"name":"USAA","rank":122,"year":2015,"industry":"Insurance: Property and Casualty (Stock)","sector":"Financials","headquarters_state":"TX","headquarters_city":"San Antonio","latitude":29.4246002,"longitude":-98.4951405,"employees":27635.0,"market_value_millions":null,"market_value_billions":null,"revenue_millions":24033.0,"revenue_billions":24.0,"profit_millions":3410.0,"profit_billions":3.4}, {"name":"Union Pacific","rank":123,"year":2015,"industry":"Railroads","sector":"Transportation","headquarters_state":"NE","headquarters_city":"Omaha","latitude":41.2587459,"longitude":-95.9383758,"employees":47201.0,"market_value_millions":95452.0,"market_value_billions":95.5,"revenue_millions":23988.0,"revenue_billions":24.0,"profit_millions":5180.0,"profit_billions":5.2}, {"name":"Northrop Grumman","rank":124,"year":2015,"industry":"Aerospace & Defense","sector":"Aerospace & Defense","headquarters_state":"VA","headquarters_city":"Falls Church","latitude":38.882334,"longitude":-77.1710914,"employees":64300.0,"market_value_millions":31935.0,"market_value_billions":31.9,"revenue_millions":23979.0,"revenue_billions":24.0,"profit_millions":2069.0,"profit_billions":2.1}, {"name":"Alcoa","rank":125,"year":2015,"industry":"Metals","sector":"Materials","headquarters_state":"NY","headquarters_city":"New York","latitude":40.7127281,"longitude":-74.0060152,"employees":59000.0,"market_value_millions":15791.0,"market_value_billions":15.8,"revenue_millions":23906.0,"revenue_billions":23.9,"profit_millions":268.0,"profit_billions":0.3}, {"name":"Capital One Financial","rank":126,"year":2015,"industry":"Commercial Banks","sector":"Financials","headquarters_state":"VA","headquarters_city":"McLean","latitude":40.4631789,"longitude":-88.8196613,"employees":46000.0,"market_value_millions":43308.0,"market_value_billions":43.3,"revenue_millions":23877.0,"revenue_billions":23.9,"profit_millions":4428.0,"profit_billions":4.4}, {"name":"National Oilwell Varco","rank":127,"year":2015,"industry":"Oil and Gas Equipment, Services","sector":"Energy","headquarters_state":"TX","headquarters_city":"Houston","latitude":29.7589382,"longitude":-95.3676974,"employees":59091.0,"market_value_millions":20493.0,"market_value_billions":20.5,"revenue_millions":23141.0,"revenue_billions":23.1,"profit_millions":2502.0,"profit_billions":2.5}, {"name":"US Foods","rank":128,"year":2015,"industry":"Wholesalers: Food and Grocery","sector":"Wholesalers","headquarters_state":"IL","headquarters_city":"Rosemont","latitude":41.9941334,"longitude":-87.8756737,"employees":25000.0,"market_value_millions":null,"market_value_billions":null,"revenue_millions":23020.0,"revenue_billions":23.0,"profit_millions":-73.0,"profit_billions":-0.1}, {"name":"Raytheon","rank":129,"year":2015,"industry":"Aerospace & Defense","sector":"Aerospace & Defense","headquarters_state":"MA","headquarters_city":"Waltham","latitude":42.3756401,"longitude":-71.2358004,"employees":61000.0,"market_value_millions":33575.0,"market_value_billions":33.6,"revenue_millions":22826.0,"revenue_billions":22.8,"profit_millions":2244.0,"profit_billions":2.2}, {"name":"Time Warner Cable","rank":130,"year":2015,"industry":"Telecommunications","sector":"Telecommunications","headquarters_state":"NY","headquarters_city":"New York","latitude":40.7127281,"longitude":-74.0060152,"employees":54615.0,"market_value_millions":42101.0,"market_value_billions":42.1,"revenue_millions":22812.0,"revenue_billions":22.8,"profit_millions":2031.0,"profit_billions":2.0}, {"name":"Arrow Electronics","rank":131,"year":2015,"industry":"Wholesalers: Electronics and Office Equipment","sector":"Wholesalers","headquarters_state":"CO","headquarters_city":"Centennial","latitude":39.579155,"longitude":-104.8769227,"employees":17000.0,"market_value_millions":5849.0,"market_value_billions":5.8,"revenue_millions":22769.0,"revenue_billions":22.8,"profit_millions":498.0,"profit_billions":0.5}, {"name":"Aflac","rank":132,"year":2015,"industry":"Insurance: Life, Health (Stock)","sector":"Financials","headquarters_state":"GA","headquarters_city":"Columbus","latitude":39.9622601,"longitude":-83.0007065,"employees":9525.0,"market_value_millions":28062.0,"market_value_billions":28.1,"revenue_millions":22728.0,"revenue_billions":22.7,"profit_millions":2951.0,"profit_billions":3.0}, {"name":"Staples","rank":133,"year":2015,"industry":"Specialty Retailers: Other","sector":"Retailing","headquarters_state":"MA","headquarters_city":"Framingham","latitude":42.2773177,"longitude":-71.4165905,"employees":61738.0,"market_value_millions":10430.0,"market_value_billions":10.4,"revenue_millions":22492.0,"revenue_billions":22.5,"profit_millions":135.0,"profit_billions":0.1}, {"name":"Abbott Laboratories","rank":134,"year":2015,"industry":"Medical Products and Equipment","sector":"Health Care","headquarters_state":"IL","headquarters_city":"Abbott Park","latitude":38.7712641,"longitude":-75.13876534,"employees":77000.0,"market_value_millions":69911.0,"market_value_billions":69.9,"revenue_millions":22323.0,"revenue_billions":22.3,"profit_millions":2284.0,"profit_billions":2.3}, {"name":"Community Health Systems","rank":135,"year":2015,"industry":"Health Care: Medical Facilities","sector":"Health Care","headquarters_state":"TN","headquarters_city":"Franklin","latitude":33.2002659,"longitude":-95.2231752,"employees":119000.0,"market_value_millions":6104.0,"market_value_billions":6.1,"revenue_millions":21987.0,"revenue_billions":22.0,"profit_millions":92.0,"profit_billions":0.1}, {"name":"Fluor","rank":136,"year":2015,"industry":"Engineering & Construction","sector":"Engineering & Construction","headquarters_state":"TX","headquarters_city":"Irving","latitude":32.8295183,"longitude":-96.9442177,"employees":37508.0,"market_value_millions":8427.0,"market_value_billions":8.4,"revenue_millions":21532.0,"revenue_billions":21.5,"profit_millions":511.0,"profit_billions":0.5}, {"name":"Freeport-McMoRan","rank":137,"year":2015,"industry":"Mining, Crude-Oil Production","sector":"Energy","headquarters_state":"AZ","headquarters_city":"Phoenix","latitude":40.3936294,"longitude":47.7872508,"employees":35000.0,"market_value_millions":19705.0,"market_value_billions":19.7,"revenue_millions":21438.0,"revenue_billions":21.4,"profit_millions":-1308.0,"profit_billions":-1.3}, {"name":"U.S. Bancorp","rank":138,"year":2015,"industry":"Commercial Banks","sector":"Financials","headquarters_state":"MN","headquarters_city":"Minneapolis","latitude":44.9772995,"longitude":-93.2654692,"employees":66750.0,"market_value_millions":77851.0,"market_value_billions":77.9,"revenue_millions":21392.0,"revenue_billions":21.4,"profit_millions":5851.0,"profit_billions":5.9}, {"name":"Nucor","rank":139,"year":2015,"industry":"Metals","sector":"Materials","headquarters_state":"NC","headquarters_city":"Charlotte","latitude":35.2272086,"longitude":-80.8430827,"employees":23600.0,"market_value_millions":15164.0,"market_value_billions":15.2,"revenue_millions":21105.0,"revenue_billions":21.1,"profit_millions":714.0,"profit_billions":0.7}, {"name":"Kimberly-Clark","rank":140,"year":2015,"industry":"Household and Personal Products","sector":"Household Products","headquarters_state":"TX","headquarters_city":"Irving","latitude":32.8295183,"longitude":-96.9442177,"employees":43000.0,"market_value_millions":39117.0,"market_value_billions":39.1,"revenue_millions":21044.0,"revenue_billions":21.0,"profit_millions":1526.0,"profit_billions":1.5}, {"name":"Hess","rank":141,"year":2015,"industry":"Petroleum Refining","sector":"Energy","headquarters_state":"NY","headquarters_city":"New York","latitude":40.7127281,"longitude":-74.0060152,"employees":3045.0,"market_value_millions":19400.0,"market_value_billions":19.4,"revenue_millions":21015.0,"revenue_billions":21.0,"profit_millions":2317.0,"profit_billions":2.3}, {"name":"Chesapeake Energy","rank":142,"year":2015,"industry":"Mining, Crude-Oil Production","sector":"Energy","headquarters_state":"OK","headquarters_city":"Oklahoma City","latitude":35.4729886,"longitude":-97.5170536,"employees":5500.0,"market_value_millions":9417.0,"market_value_billions":9.4,"revenue_millions":20951.0,"revenue_billions":21.0,"profit_millions":1917.0,"profit_billions":1.9}, {"name":"Xerox","rank":143,"year":2015,"industry":"Information Technology Services","sector":"Technology","headquarters_state":"CT","headquarters_city":"Norwalk","latitude":41.1175966,"longitude":-73.4078968,"employees":147500.0,"market_value_millions":14292.0,"market_value_billions":14.3,"revenue_millions":20905.0,"revenue_billions":20.9,"profit_millions":969.0,"profit_billions":1.0}, {"name":"ManpowerGroup","rank":144,"year":2015,"industry":"Temporary Help","sector":"Business Services","headquarters_state":"WI","headquarters_city":"Milwaukee","latitude":43.0349931,"longitude":-87.922497,"employees":26000.0,"market_value_millions":6746.0,"market_value_billions":6.7,"revenue_millions":20763.0,"revenue_billions":20.8,"profit_millions":428.0,"profit_billions":0.4}, {"name":"Amgen","rank":145,"year":2015,"industry":"Pharmaceuticals","sector":"Health Care","headquarters_state":"CA","headquarters_city":"Thousand Oaks","latitude":34.1705609,"longitude":-118.8375937,"employees":17900.0,"market_value_millions":121304.0,"market_value_billions":121.3,"revenue_millions":20063.0,"revenue_billions":20.1,"profit_millions":5158.0,"profit_billions":5.2}, {"name":"AbbVie","rank":146,"year":2015,"industry":"Pharmaceuticals","sector":"Health Care","headquarters_state":"IL","headquarters_city":"North Chicago","latitude":42.327724,"longitude":-87.8394189,"employees":26000.0,"market_value_millions":93204.0,"market_value_billions":93.2,"revenue_millions":19960.0,"revenue_billions":20.0,"profit_millions":1774.0,"profit_billions":1.8}, {"name":"Danaher","rank":147,"year":2015,"industry":"Scientific, Photographic and Control Equipment","sector":"Technology","headquarters_state":"DC","headquarters_city":"Washington","latitude":38.8950368,"longitude":-77.0365427,"employees":71000.0,"market_value_millions":60034.0,"market_value_billions":60.0,"revenue_millions":19914.0,"revenue_billions":19.9,"profit_millions":2598.0,"profit_billions":2.6}, {"name":"Whirlpool","rank":148,"year":2015,"industry":"Electronics, Electrical Equipment","sector":"Industrials","headquarters_state":"MI","headquarters_city":"Benton Harbor","latitude":42.1167065,"longitude":-86.4541894,"employees":100000.0,"market_value_millions":15781.0,"market_value_billions":15.8,"revenue_millions":19872.0,"revenue_billions":19.9,"profit_millions":650.0,"profit_billions":0.6}, {"name":"PBF Energy","rank":149,"year":2015,"industry":"Petroleum Refining","sector":"Energy","headquarters_state":"NJ","headquarters_city":"Parsippany","latitude":40.8578772,"longitude":-74.4259866,"employees":1714.0,"market_value_millions":3092.0,"market_value_billions":3.1,"revenue_millions":19828.0,"revenue_billions":19.8,"profit_millions":-38.0,"profit_billions":0.0}, {"name":"HollyFrontier","rank":150,"year":2015,"industry":"Petroleum Refining","sector":"Energy","headquarters_state":"TX","headquarters_city":"Dallas","latitude":32.7762719,"longitude":-96.7968559,"employees":2686.0,"market_value_millions":7879.0,"market_value_billions":7.9,"revenue_millions":19764.0,"revenue_billions":19.8,"profit_millions":281.0,"profit_billions":0.3}, {"name":"Eli Lilly","rank":151,"year":2015,"industry":"Pharmaceuticals","sector":"Health Care","headquarters_state":"IN","headquarters_city":"Indianapolis","latitude":39.7683331,"longitude":-86.1583502,"employees":39135.0,"market_value_millions":80722.0,"market_value_billions":80.7,"revenue_millions":19616.0,"revenue_billions":19.6,"profit_millions":2391.0,"profit_billions":2.4}, {"name":"Devon Energy","rank":152,"year":2015,"industry":"Mining, Crude-Oil Production","sector":"Energy","headquarters_state":"OK","headquarters_city":"Oklahoma City","latitude":35.4729886,"longitude":-97.5170536,"employees":5437.0,"market_value_millions":24793.0,"market_value_billions":24.8,"revenue_millions":19566.0,"revenue_billions":19.6,"profit_millions":1607.0,"profit_billions":1.6}, {"name":"Progressive","rank":153,"year":2015,"industry":"Insurance: Property and Casualty (Stock)","sector":"Financials","headquarters_state":"OH","headquarters_city":"Mayfield Village","latitude":43.7599968,"longitude":-79.78382001,"employees":26501.0,"market_value_millions":15982.0,"market_value_billions":16.0,"revenue_millions":19391.0,"revenue_billions":19.4,"profit_millions":1281.0,"profit_billions":1.3}, {"name":"Cummins","rank":154,"year":2015,"industry":"Construction and Farm Machinery","sector":"Industrials","headquarters_state":"IN","headquarters_city":"Columbus","latitude":39.9622601,"longitude":-83.0007065,"employees":54600.0,"market_value_millions":25136.0,"market_value_billions":25.1,"revenue_millions":19221.0,"revenue_billions":19.2,"profit_millions":1651.0,"profit_billions":1.7}, {"name":"Icahn Enterprises","rank":155,"year":2015,"industry":"Petroleum Refining","sector":"Energy","headquarters_state":"NY","headquarters_city":"New York","latitude":40.7127281,"longitude":-74.0060152,"employees":65577.0,"market_value_millions":11038.0,"market_value_billions":11.0,"revenue_millions":19157.0,"revenue_billions":19.2,"profit_millions":-373.0,"profit_billions":-0.4}, {"name":"AutoNation","rank":156,"year":2015,"industry":"Automotive Retailing, Services","sector":"Retailing","headquarters_state":"FL","headquarters_city":"Fort Lauderdale","latitude":26.1223084,"longitude":-80.1433786,"employees":24000.0,"market_value_millions":7307.0,"market_value_billions":7.3,"revenue_millions":19109.0,"revenue_billions":19.1,"profit_millions":419.0,"profit_billions":0.4}, {"name":"Kohl's","rank":157,"year":2015,"industry":"General Merchandisers","sector":"Retailing","headquarters_state":"WI","headquarters_city":"Menomonee Falls","latitude":43.1790768,"longitude":-88.1170784,"employees":84500.0,"market_value_millions":15869.0,"market_value_billions":15.9,"revenue_millions":19023.0,"revenue_billions":19.0,"profit_millions":867.0,"profit_billions":0.9}, {"name":"Paccar","rank":158,"year":2015,"industry":"Motor Vehicles & Parts","sector":"Motor Vehicles & Parts","headquarters_state":"WA","headquarters_city":"Bellevue","latitude":47.6144219,"longitude":-122.192337,"employees":23300.0,"market_value_millions":22384.0,"market_value_billions":22.4,"revenue_millions":18997.0,"revenue_billions":19.0,"profit_millions":1359.0,"profit_billions":1.4}, {"name":"Dollar General","rank":159,"year":2015,"industry":"General Merchandisers","sector":"Retailing","headquarters_state":"TN","headquarters_city":"Goodlettsville","latitude":36.3231067,"longitude":-86.7133302,"employees":105500.0,"market_value_millions":22872.0,"market_value_billions":22.9,"revenue_millions":18910.0,"revenue_billions":18.9,"profit_millions":1065.0,"profit_billions":1.1}, {"name":"Hartford Financial Services Group","rank":160,"year":2015,"industry":"Insurance: Property and Casualty (Stock)","sector":"Financials","headquarters_state":"CT","headquarters_city":"Hartford","latitude":41.764582,"longitude":-72.6908547,"employees":17500.0,"market_value_millions":17604.0,"market_value_billions":17.6,"revenue_millions":18847.0,"revenue_billions":18.8,"profit_millions":798.0,"profit_billions":0.8}, {"name":"Southwest Airlines","rank":161,"year":2015,"industry":"Airlines","sector":"Transportation","headquarters_state":"TX","headquarters_city":"Dallas","latitude":32.7762719,"longitude":-96.7968559,"employees":46278.0,"market_value_millions":29947.0,"market_value_billions":29.9,"revenue_millions":18605.0,"revenue_billions":18.6,"profit_millions":1136.0,"profit_billions":1.1}, {"name":"Anadarko Petroleum","rank":162,"year":2015,"industry":"Mining, Crude-Oil Production","sector":"Energy","headquarters_state":"TX","headquarters_city":"The Woodlands","latitude":30.1734194,"longitude":-95.504686,"employees":6100.0,"market_value_millions":42687.0,"market_value_billions":42.7,"revenue_millions":18470.0,"revenue_billions":18.5,"profit_millions":-1750.0,"profit_billions":-1.8}, {"name":"Southern","rank":163,"year":2015,"industry":"Utilities: Gas and Electric","sector":"Energy","headquarters_state":"GA","headquarters_city":"Atlanta","latitude":33.7489924,"longitude":-84.3902644,"employees":26369.0,"market_value_millions":40289.0,"market_value_billions":40.3,"revenue_millions":18467.0,"revenue_billions":18.5,"profit_millions":1963.0,"profit_billions":2.0}, {"name":"Supervalu","rank":164,"year":2015,"industry":"Food & Drug Stores","sector":"Food & Drug Stores","headquarters_state":"MN","headquarters_city":"Eden Prairie","latitude":44.8546856,"longitude":-93.470786,"employees":35800.0,"market_value_millions":3039.0,"market_value_billions":3.0,"revenue_millions":18390.0,"revenue_billions":18.4,"profit_millions":182.0,"profit_billions":0.2}, {"name":"Kraft Foods Group","rank":165,"year":2015,"industry":"Food Consumer Products","sector":"Food, Beverages & Tobacco","headquarters_state":"IL","headquarters_city":"Northfield","latitude":44.4582041,"longitude":-93.161159,"employees":22100.0,"market_value_millions":51223.0,"market_value_billions":51.2,"revenue_millions":18205.0,"revenue_billions":18.2,"profit_millions":1043.0,"profit_billions":1.0}, {"name":"Goodyear Tire & Rubber","rank":166,"year":2015,"industry":"Motor Vehicles & Parts","sector":"Motor Vehicles & Parts","headquarters_state":"OH","headquarters_city":"Akron","latitude":41.083064,"longitude":-81.518485,"employees":67000.0,"market_value_millions":7305.0,"market_value_billions":7.3,"revenue_millions":18138.0,"revenue_billions":18.1,"profit_millions":2452.0,"profit_billions":2.5}, {"name":"EOG Resources","rank":167,"year":2015,"industry":"Mining, Crude-Oil Production","sector":"Energy","headquarters_state":"TX","headquarters_city":"Houston","latitude":29.7589382,"longitude":-95.3676974,"employees":3000.0,"market_value_millions":50287.0,"market_value_billions":50.3,"revenue_millions":18035.0,"revenue_billions":18.0,"profit_millions":2916.0,"profit_billions":2.9}, {"name":"CenturyLink","rank":168,"year":2015,"industry":"Telecommunications","sector":"Telecommunications","headquarters_state":"LA","headquarters_city":"Monroe","latitude":38.2722313,"longitude":-90.1792484,"employees":45000.0,"market_value_millions":19572.0,"market_value_billions":19.6,"revenue_millions":18031.0,"revenue_billions":18.0,"profit_millions":772.0,"profit_billions":0.8}, {"name":"Altria Group","rank":169,"year":2015,"industry":"Tobacco","sector":"Food, Beverages & Tobacco","headquarters_state":"VA","headquarters_city":"Richmond","latitude":37.5385087,"longitude":-77.43428,"employees":9000.0,"market_value_millions":98505.0,"market_value_billions":98.5,"revenue_millions":17945.0,"revenue_billions":17.9,"profit_millions":5070.0,"profit_billions":5.1}, {"name":"Tenet Healthcare","rank":170,"year":2015,"industry":"Health Care: Medical Facilities","sector":"Health Care","headquarters_state":"TX","headquarters_city":"Dallas","latitude":32.7762719,"longitude":-96.7968559,"employees":96456.0,"market_value_millions":4909.0,"market_value_billions":4.9,"revenue_millions":17924.0,"revenue_billions":17.9,"profit_millions":12.0,"profit_billions":0.0}, {"name":"General Mills","rank":171,"year":2015,"industry":"Food Consumer Products","sector":"Food, Beverages & Tobacco","headquarters_state":"MN","headquarters_city":"Minneapolis","latitude":44.9772995,"longitude":-93.2654692,"employees":43000.0,"market_value_millions":33739.0,"market_value_billions":33.7,"revenue_millions":17910.0,"revenue_billions":17.9,"profit_millions":1824.0,"profit_billions":1.8}, {"name":"eBay","rank":172,"year":2015,"industry":"Internet Services and Retailing","sector":"Technology","headquarters_state":"CA","headquarters_city":"San Jose","latitude":37.3361663,"longitude":-121.890591,"employees":35550.0,"market_value_millions":69946.0,"market_value_billions":69.9,"revenue_millions":17902.0,"revenue_billions":17.9,"profit_millions":46.0,"profit_billions":0.0}, {"name":"ConAgra Foods","rank":173,"year":2015,"industry":"Food Consumer Products","sector":"Food, Beverages & Tobacco","headquarters_state":"NE","headquarters_city":"Omaha","latitude":41.2587459,"longitude":-95.9383758,"employees":32800.0,"market_value_millions":15600.0,"market_value_billions":15.6,"revenue_millions":17773.0,"revenue_billions":17.8,"profit_millions":303.0,"profit_billions":0.3}, {"name":"Lear","rank":174,"year":2015,"industry":"Motor Vehicles & Parts","sector":"Motor Vehicles & Parts","headquarters_state":"MI","headquarters_city":"Southfield","latitude":42.4733689,"longitude":-83.2218731,"employees":125200.0,"market_value_millions":8554.0,"market_value_billions":8.6,"revenue_millions":17727.0,"revenue_billions":17.7,"profit_millions":672.0,"profit_billions":0.7}, {"name":"TRW Automotive Holdings","rank":175,"year":2015,"industry":"Motor Vehicles & Parts","sector":"Motor Vehicles & Parts","headquarters_state":"MI","headquarters_city":"Livonia","latitude":42.36837,"longitude":-83.3527097,"employees":72900.0,"market_value_millions":12055.0,"market_value_billions":12.1,"revenue_millions":17539.0,"revenue_billions":17.5,"profit_millions":293.0,"profit_billions":0.3}, {"name":"United States Steel","rank":176,"year":2015,"industry":"Metals","sector":"Materials","headquarters_state":"PA","headquarters_city":"Pittsburgh","latitude":40.4416941,"longitude":-79.9900861,"employees":35500.0,"market_value_millions":3554.0,"market_value_billions":3.6,"revenue_millions":17507.0,"revenue_billions":17.5,"profit_millions":102.0,"profit_billions":0.1}, {"name":"Penske Automotive Group","rank":177,"year":2015,"industry":"Automotive Retailing, Services","sector":"Retailing","headquarters_state":"MI","headquarters_city":"Bloomfield Hills","latitude":42.583645,"longitude":-83.2454883,"employees":22100.0,"market_value_millions":4651.0,"market_value_billions":4.7,"revenue_millions":17439.0,"revenue_billions":17.4,"profit_millions":287.0,"profit_billions":0.3}, {"name":"AES","rank":178,"year":2015,"industry":"Utilities: Gas and Electric","sector":"Energy","headquarters_state":"VA","headquarters_city":"Arlington","latitude":32.7355816,"longitude":-97.1071186,"employees":18500.0,"market_value_millions":9036.0,"market_value_billions":9.0,"revenue_millions":17378.0,"revenue_billions":17.4,"profit_millions":769.0,"profit_billions":0.8}, {"name":"Colgate-Palmolive","rank":179,"year":2015,"industry":"Household and Personal Products","sector":"Household Products","headquarters_state":"NY","headquarters_city":"New York","latitude":40.7127281,"longitude":-74.0060152,"employees":37700.0,"market_value_millions":62897.0,"market_value_billions":62.9,"revenue_millions":17277.0,"revenue_billions":17.3,"profit_millions":2180.0,"profit_billions":2.2}, {"name":"Global Partners","rank":180,"year":2015,"industry":"Wholesalers: Diversified","sector":"Wholesalers","headquarters_state":"MA","headquarters_city":"Waltham","latitude":42.3756401,"longitude":-71.2358004,"employees":1154.0,"market_value_millions":1079.0,"market_value_billions":1.1,"revenue_millions":17270.0,"revenue_billions":17.3,"profit_millions":115.0,"profit_billions":0.1}, {"name":"Thermo Fisher Scientific","rank":181,"year":2015,"industry":"Scientific, Photographic and Control Equipment","sector":"Technology","headquarters_state":"MA","headquarters_city":"Waltham","latitude":42.3756401,"longitude":-71.2358004,"employees":51000.0,"market_value_millions":53304.0,"market_value_billions":53.3,"revenue_millions":17100.0,"revenue_billions":17.1,"profit_millions":1894.0,"profit_billions":1.9}, {"name":"PG&E Corp.","rank":182,"year":2015,"industry":"Utilities: Gas and Electric","sector":"Energy","headquarters_state":"CA","headquarters_city":"San Francisco","latitude":37.7790262,"longitude":-122.419906,"employees":22581.0,"market_value_millions":25371.0,"market_value_billions":25.4,"revenue_millions":17090.0,"revenue_billions":17.1,"profit_millions":1436.0,"profit_billions":1.4}, {"name":"NextEra Energy","rank":183,"year":2015,"industry":"Utilities: Gas and Electric","sector":"Energy","headquarters_state":"FL","headquarters_city":"Juno Beach","latitude":49.3371174,"longitude":-0.4407731,"employees":13800.0,"market_value_millions":46211.0,"market_value_billions":46.2,"revenue_millions":17021.0,"revenue_billions":17.0,"profit_millions":2465.0,"profit_billions":2.5}, {"name":"American Electric Power","rank":184,"year":2015,"industry":"Utilities: Gas and Electric","sector":"Energy","headquarters_state":"OH","headquarters_city":"Columbus","latitude":39.9622601,"longitude":-83.0007065,"employees":18529.0,"market_value_millions":27529.0,"market_value_billions":27.5,"revenue_millions":17020.0,"revenue_billions":17.0,"profit_millions":1634.0,"profit_billions":1.6}, {"name":"Baxter International","rank":185,"year":2015,"industry":"Medical Products and Equipment","sector":"Health Care","headquarters_state":"IL","headquarters_city":"Deerfield","latitude":42.1711365,"longitude":-87.8445119,"employees":65500.0,"market_value_millions":37232.0,"market_value_billions":37.2,"revenue_millions":16972.0,"revenue_billions":17.0,"profit_millions":2497.0,"profit_billions":2.5}, {"name":"Centene","rank":186,"year":2015,"industry":"Health Care: Insurance and Managed Care","sector":"Health Care","headquarters_state":"MO","headquarters_city":"St. Louis","latitude":38.6280278,"longitude":-90.1910154,"employees":13400.0,"market_value_millions":8399.0,"market_value_billions":8.4,"revenue_millions":16588.0,"revenue_billions":16.6,"profit_millions":271.0,"profit_billions":0.3}, {"name":"Starbucks","rank":187,"year":2015,"industry":"Food Services","sector":"Hotels, Restaurants & Leisure","headquarters_state":"WA","headquarters_city":"Seattle","latitude":47.6038321,"longitude":-122.330062,"employees":191000.0,"market_value_millions":71006.0,"market_value_billions":71.0,"revenue_millions":16448.0,"revenue_billions":16.4,"profit_millions":2068.0,"profit_billions":2.1}, {"name":"Gap","rank":188,"year":2015,"industry":"Specialty Retailers: Apparel","sector":"Retailing","headquarters_state":"CA","headquarters_city":"San Francisco","latitude":37.7790262,"longitude":-122.419906,"employees":141000.0,"market_value_millions":18145.0,"market_value_billions":18.1,"revenue_millions":16435.0,"revenue_billions":16.4,"profit_millions":1262.0,"profit_billions":1.3}, {"name":"Bank of New York Mellon Corp.","rank":189,"year":2015,"industry":"Commercial Banks","sector":"Financials","headquarters_state":"NY","headquarters_city":"New York","latitude":40.7127281,"longitude":-74.0060152,"employees":50300.0,"market_value_millions":44853.0,"market_value_billions":44.9,"revenue_millions":16386.0,"revenue_billions":16.4,"profit_millions":2567.0,"profit_billions":2.6}, {"name":"Micron Technology","rank":190,"year":2015,"industry":"Semiconductors and Other Electronic Components","sector":"Technology","headquarters_state":"ID","headquarters_city":"Boise","latitude":43.6008183,"longitude":-116.2421086,"employees":30400.0,"market_value_millions":29228.0,"market_value_billions":29.2,"revenue_millions":16358.0,"revenue_billions":16.4,"profit_millions":3045.0,"profit_billions":3.0}, {"name":"Jabil Circuit","rank":191,"year":2015,"industry":"Semiconductors and Other Electronic Components","sector":"Technology","headquarters_state":"FL","headquarters_city":"St. Petersburg","latitude":59.9606739,"longitude":30.1586551,"employees":142000.0,"market_value_millions":4518.0,"market_value_billions":4.5,"revenue_millions":16349.0,"revenue_billions":16.3,"profit_millions":241.0,"profit_billions":0.2}, {"name":"PNC Financial Services Group","rank":192,"year":2015,"industry":"Commercial Banks","sector":"Financials","headquarters_state":"PA","headquarters_city":"Pittsburgh","latitude":40.4416941,"longitude":-79.9900861,"employees":51666.0,"market_value_millions":48549.0,"market_value_billions":48.5,"revenue_millions":16281.0,"revenue_billions":16.3,"profit_millions":4184.0,"profit_billions":4.2}, {"name":"Kinder Morgan","rank":193,"year":2015,"industry":"Pipelines","sector":"Energy","headquarters_state":"TX","headquarters_city":"Houston","latitude":29.7589382,"longitude":-95.3676974,"employees":11535.0,"market_value_millions":90623.0,"market_value_billions":90.6,"revenue_millions":16226.0,"revenue_billions":16.2,"profit_millions":1026.0,"profit_billions":1.0}, {"name":"Office Depot","rank":194,"year":2015,"industry":"Specialty Retailers: Other","sector":"Retailing","headquarters_state":"FL","headquarters_city":"Boca Raton","latitude":26.3586885,"longitude":-80.0830984,"employees":56000.0,"market_value_millions":5004.0,"market_value_billions":5.0,"revenue_millions":16096.0,"revenue_billions":16.1,"profit_millions":-354.0,"profit_billions":-0.4}, {"name":"Bristol-Myers Squibb","rank":195,"year":2015,"industry":"Pharmaceuticals","sector":"Health Care","headquarters_state":"NY","headquarters_city":"New York","latitude":40.7127281,"longitude":-74.0060152,"employees":25000.0,"market_value_millions":107500.0,"market_value_billions":107.5,"revenue_millions":15879.0,"revenue_billions":15.9,"profit_millions":2004.0,"profit_billions":2.0}, {"name":"NRG Energy","rank":196,"year":2015,"industry":"Energy","sector":"Energy","headquarters_state":"NJ","headquarters_city":"Princeton","latitude":40.3496953,"longitude":-74.6597376,"employees":9806.0,"market_value_millions":8493.0,"market_value_billions":8.5,"revenue_millions":15868.0,"revenue_billions":15.9,"profit_millions":134.0,"profit_billions":0.1}, {"name":"Monsanto","rank":197,"year":2015,"industry":"Chemicals","sector":"Chemicals","headquarters_state":"MO","headquarters_city":"St. Louis","latitude":38.6280278,"longitude":-90.1910154,"employees":24700.0,"market_value_millions":54389.0,"market_value_billions":54.4,"revenue_millions":15855.0,"revenue_billions":15.9,"profit_millions":2740.0,"profit_billions":2.7}, {"name":"PPG Industries","rank":198,"year":2015,"industry":"Chemicals","sector":"Chemicals","headquarters_state":"PA","headquarters_city":"Pittsburgh","latitude":40.4416941,"longitude":-79.9900861,"employees":44400.0,"market_value_millions":30763.0,"market_value_billions":30.8,"revenue_millions":15607.0,"revenue_billions":15.6,"profit_millions":2102.0,"profit_billions":2.1}, {"name":"Genuine Parts","rank":199,"year":2015,"industry":"Wholesalers: Diversified","sector":"Wholesalers","headquarters_state":"GA","headquarters_city":"Atlanta","latitude":33.7489924,"longitude":-84.3902644,"employees":39000.0,"market_value_millions":14230.0,"market_value_billions":14.2,"revenue_millions":15342.0,"revenue_billions":15.3,"profit_millions":711.0,"profit_billions":0.7}, {"name":"Omnicom Group","rank":200,"year":2015,"industry":"Advertising, Marketing","sector":"Business Services","headquarters_state":"NY","headquarters_city":"New York","latitude":40.7127281,"longitude":-74.0060152,"employees":74000.0,"market_value_millions":19239.0,"market_value_billions":19.2,"revenue_millions":15318.0,"revenue_billions":15.3,"profit_millions":1104.0,"profit_billions":1.1}, {"name":"Illinois Tool Works","rank":201,"year":2015,"industry":"Industrial Machinery","sector":"Industrials","headquarters_state":"IL","headquarters_city":"Glenview","latitude":38.3084193,"longitude":-85.6505526,"employees":49000.0,"market_value_millions":36265.0,"market_value_billions":36.3,"revenue_millions":15282.0,"revenue_billions":15.3,"profit_millions":2946.0,"profit_billions":2.9}, {"name":"Murphy USA","rank":202,"year":2015,"industry":"Specialty Retailers: Other","sector":"Retailing","headquarters_state":"AR","headquarters_city":"El Dorado","latitude":33.2115087,"longitude":-92.6650144,"employees":5725.0,"market_value_millions":3296.0,"market_value_billions":3.3,"revenue_millions":15279.0,"revenue_billions":15.3,"profit_millions":244.0,"profit_billions":0.2}, {"name":"Land O'Lakes","rank":203,"year":2015,"industry":"Food Consumer Products","sector":"Food, Beverages & Tobacco","headquarters_state":"MN","headquarters_city":"Arden Hills","latitude":45.0761409,"longitude":-93.1666945,"employees":10000.0,"market_value_millions":null,"market_value_billions":null,"revenue_millions":15199.0,"revenue_billions":15.2,"profit_millions":267.0,"profit_billions":0.3}, {"name":"Western Refining","rank":204,"year":2015,"industry":"Petroleum Refining","sector":"Energy","headquarters_state":"TX","headquarters_city":"El Paso","latitude":31.7550511,"longitude":-106.488234,"employees":5700.0,"market_value_millions":4715.0,"market_value_billions":4.7,"revenue_millions":15154.0,"revenue_billions":15.2,"profit_millions":560.0,"profit_billions":0.6}, {"name":"Western Digital","rank":205,"year":2015,"industry":"Computer Peripherals","sector":"Technology","headquarters_state":"CA","headquarters_city":"Irvine","latitude":33.6856969,"longitude":-117.8259819,"employees":84072.0,"market_value_millions":21026.0,"market_value_billions":21.0,"revenue_millions":15130.0,"revenue_billions":15.1,"profit_millions":1617.0,"profit_billions":1.6}, {"name":"FirstEnergy","rank":206,"year":2015,"industry":"Utilities: Gas and Electric","sector":"Energy","headquarters_state":"OH","headquarters_city":"Akron","latitude":41.083064,"longitude":-81.518485,"employees":15557.0,"market_value_millions":14767.0,"market_value_billions":14.8,"revenue_millions":15054.0,"revenue_billions":15.1,"profit_millions":299.0,"profit_billions":0.3}, {"name":"Aramark","rank":207,"year":2015,"industry":"Diversified Outsourcing Services","sector":"Business Services","headquarters_state":"PA","headquarters_city":"Philadelphia","latitude":39.9527237,"longitude":-75.1635262,"employees":216000.0,"market_value_millions":7496.0,"market_value_billions":7.5,"revenue_millions":14833.0,"revenue_billions":14.8,"profit_millions":149.0,"profit_billions":0.1}, {"name":"DISH Network","rank":208,"year":2015,"industry":"Telecommunications","sector":"Telecommunications","headquarters_state":"CO","headquarters_city":"Englewood","latitude":39.6482059,"longitude":-104.9879641,"employees":19000.0,"market_value_millions":32356.0,"market_value_billions":32.4,"revenue_millions":14643.0,"revenue_billions":14.6,"profit_millions":945.0,"profit_billions":0.9}, {"name":"Las Vegas Sands","rank":209,"year":2015,"industry":"Hotels, Casinos, Resorts","sector":"Hotels, Restaurants & Leisure","headquarters_state":"NV","headquarters_city":"Las Vegas","latitude":36.1672559,"longitude":-115.148516,"employees":48500.0,"market_value_millions":43950.0,"market_value_billions":44.0,"revenue_millions":14584.0,"revenue_billions":14.6,"profit_millions":2841.0,"profit_billions":2.8}, {"name":"Kellogg","rank":210,"year":2015,"industry":"Food Consumer Products","sector":"Food, Beverages & Tobacco","headquarters_state":"MI","headquarters_city":"Battle Creek","latitude":42.3192548,"longitude":-85.1824269,"employees":29790.0,"market_value_millions":23491.0,"market_value_billions":23.5,"revenue_millions":14580.0,"revenue_billions":14.6,"profit_millions":632.0,"profit_billions":0.6}, {"name":"Loews","rank":211,"year":2015,"industry":"Insurance: Property and Casualty (Stock)","sector":"Financials","headquarters_state":"NY","headquarters_city":"New York","latitude":40.7127281,"longitude":-74.0060152,"employees":17510.0,"market_value_millions":15237.0,"market_value_billions":15.2,"revenue_millions":14572.0,"revenue_billions":14.6,"profit_millions":591.0,"profit_billions":0.6}, {"name":"CBS","rank":212,"year":2015,"industry":"Entertainment","sector":"Media","headquarters_state":"NY","headquarters_city":"New York","latitude":40.7127281,"longitude":-74.0060152,"employees":20125.0,"market_value_millions":30150.0,"market_value_billions":30.2,"revenue_millions":14483.0,"revenue_billions":14.5,"profit_millions":2959.0,"profit_billions":3.0}, {"name":"Ecolab","rank":213,"year":2015,"industry":"Chemicals","sector":"Chemicals","headquarters_state":"MN","headquarters_city":"St. Paul","latitude":53.9446204,"longitude":-111.2100163,"employees":47430.0,"market_value_millions":34011.0,"market_value_billions":34.0,"revenue_millions":14281.0,"revenue_billions":14.3,"profit_millions":1203.0,"profit_billions":1.2}, {"name":"Whole Foods Market","rank":214,"year":2015,"industry":"Food & Drug Stores","sector":"Food & Drug Stores","headquarters_state":"TX","headquarters_city":"Austin","latitude":30.2711286,"longitude":-97.7436995,"employees":72650.0,"market_value_millions":18789.0,"market_value_billions":18.8,"revenue_millions":14194.0,"revenue_billions":14.2,"profit_millions":579.0,"profit_billions":0.6}, {"name":"Chubb","rank":215,"year":2015,"industry":"Insurance: Property and Casualty (Stock)","sector":"Financials","headquarters_state":"NJ","headquarters_city":"Warren","latitude":41.8119602,"longitude":-79.2654452,"employees":10200.0,"market_value_millions":23306.0,"market_value_billions":23.3,"revenue_millions":14098.0,"revenue_billions":14.1,"profit_millions":2100.0,"profit_billions":2.1}, {"name":"Health Net","rank":216,"year":2015,"industry":"Health Care: Insurance and Managed Care","sector":"Health Care","headquarters_state":"CA","headquarters_city":"Woodland Hills","latitude":34.1684364,"longitude":-118.6058382,"employees":7968.0,"market_value_millions":4652.0,"market_value_billions":4.7,"revenue_millions":14009.0,"revenue_billions":14.0,"profit_millions":146.0,"profit_billions":0.1}, {"name":"Waste Management","rank":217,"year":2015,"industry":"Waste Management","sector":"Business Services","headquarters_state":"TX","headquarters_city":"Houston","latitude":29.7589382,"longitude":-95.3676974,"employees":39800.0,"market_value_millions":24815.0,"market_value_billions":24.8,"revenue_millions":13996.0,"revenue_billions":14.0,"profit_millions":1298.0,"profit_billions":1.3}, {"name":"Apache","rank":218,"year":2015,"industry":"Mining, Crude-Oil Production","sector":"Energy","headquarters_state":"TX","headquarters_city":"Houston","latitude":29.7589382,"longitude":-95.3676974,"employees":4950.0,"market_value_millions":22734.0,"market_value_billions":22.7,"revenue_millions":13938.0,"revenue_billions":13.9,"profit_millions":-5403.0,"profit_billions":-5.4}, {"name":"Textron","rank":219,"year":2015,"industry":"Aerospace & Defense","sector":"Aerospace & Defense","headquarters_state":"RI","headquarters_city":"Providence","latitude":41.8239891,"longitude":-71.4128343,"employees":34000.0,"market_value_millions":12280.0,"market_value_billions":12.3,"revenue_millions":13878.0,"revenue_billions":13.9,"profit_millions":600.0,"profit_billions":0.6}, {"name":"Synnex","rank":220,"year":2015,"industry":"Wholesalers: Electronics and Office Equipment","sector":"Wholesalers","headquarters_state":"CA","headquarters_city":"Fremont","latitude":37.5482697,"longitude":-121.988571,"employees":64000.0,"market_value_millions":3052.0,"market_value_billions":3.1,"revenue_millions":13840.0,"revenue_billions":13.8,"profit_millions":180.0,"profit_billions":0.2}, {"name":"Marriott International","rank":221,"year":2015,"industry":"Hotels, Casinos, Resorts","sector":"Hotels, Restaurants & Leisure","headquarters_state":"MD","headquarters_city":"Bethesda","latitude":38.9846816,"longitude":-77.0942447,"employees":123500.0,"market_value_millions":22212.0,"market_value_billions":22.2,"revenue_millions":13796.0,"revenue_billions":13.8,"profit_millions":753.0,"profit_billions":0.8}, {"name":"Viacom","rank":222,"year":2015,"industry":"Entertainment","sector":"Media","headquarters_state":"NY","headquarters_city":"New York","latitude":40.7127281,"longitude":-74.0060152,"employees":10140.0,"market_value_millions":27714.0,"market_value_billions":27.7,"revenue_millions":13783.0,"revenue_billions":13.8,"profit_millions":2391.0,"profit_billions":2.4}, {"name":"Lincoln National","rank":223,"year":2015,"industry":"Insurance: Life, Health (Stock)","sector":"Financials","headquarters_state":"PA","headquarters_city":"Radnor","latitude":40.0463001,"longitude":-75.3595487,"employees":9627.0,"market_value_millions":14732.0,"market_value_billions":14.7,"revenue_millions":13554.0,"revenue_billions":13.6,"profit_millions":1515.0,"profit_billions":1.5}, {"name":"Nordstrom","rank":224,"year":2015,"industry":"General Merchandisers","sector":"Retailing","headquarters_state":"WA","headquarters_city":"Seattle","latitude":47.6038321,"longitude":-122.330062,"employees":67000.0,"market_value_millions":15293.0,"market_value_billions":15.3,"revenue_millions":13506.0,"revenue_billions":13.5,"profit_millions":720.0,"profit_billions":0.7}, {"name":"C.H. Robinson Worldwide","rank":225,"year":2015,"industry":"Transportation and Logistics","sector":"Transportation","headquarters_state":"MN","headquarters_city":"Eden Prairie","latitude":44.8546856,"longitude":-93.470786,"employees":11521.0,"market_value_millions":10826.0,"market_value_billions":10.8,"revenue_millions":13470.0,"revenue_billions":13.5,"profit_millions":450.0,"profit_billions":0.4}, {"name":"Edison International","rank":226,"year":2015,"industry":"Utilities: Gas and Electric","sector":"Energy","headquarters_state":"CA","headquarters_city":"Rosemead","latitude":34.0676169,"longitude":-118.0879763,"employees":13690.0,"market_value_millions":20353.0,"market_value_billions":20.4,"revenue_millions":13413.0,"revenue_billions":13.4,"profit_millions":1612.0,"profit_billions":1.6}, {"name":"Marathon Oil","rank":227,"year":2015,"industry":"Mining, Crude-Oil Production","sector":"Energy","headquarters_state":"TX","headquarters_city":"Houston","latitude":29.7589382,"longitude":-95.3676974,"employees":3330.0,"market_value_millions":17623.0,"market_value_billions":17.6,"revenue_millions":13297.0,"revenue_billions":13.3,"profit_millions":3046.0,"profit_billions":3.0}, {"name":"Yum Brands","rank":228,"year":2015,"industry":"Food Services","sector":"Hotels, Restaurants & Leisure","headquarters_state":"KY","headquarters_city":"Louisville","latitude":38.2542376,"longitude":-85.759407,"employees":303405.0,"market_value_millions":34117.0,"market_value_billions":34.1,"revenue_millions":13279.0,"revenue_billions":13.3,"profit_millions":1051.0,"profit_billions":1.1}, {"name":"Computer Sciences","rank":229,"year":2015,"industry":"Information Technology Services","sector":"Technology","headquarters_state":"VA","headquarters_city":"Falls Church","latitude":38.882334,"longitude":-77.1710914,"employees":79000.0,"market_value_millions":9208.0,"market_value_billions":9.2,"revenue_millions":13233.0,"revenue_billions":13.2,"profit_millions":674.0,"profit_billions":0.7}, {"name":"Parker-Hannifin","rank":230,"year":2015,"industry":"Industrial Machinery","sector":"Industrials","headquarters_state":"OH","headquarters_city":"Cleveland","latitude":41.4996574,"longitude":-81.6936772,"employees":57450.0,"market_value_millions":16921.0,"market_value_billions":16.9,"revenue_millions":13216.0,"revenue_billions":13.2,"profit_millions":1041.0,"profit_billions":1.0}, {"name":"DaVita HealthCare Partners","rank":231,"year":2015,"industry":"Health Care: Medical Facilities","sector":"Health Care","headquarters_state":"CO","headquarters_city":"Denver","latitude":39.7392364,"longitude":-104.984862,"employees":57900.0,"market_value_millions":17540.0,"market_value_billions":17.5,"revenue_millions":13162.0,"revenue_billions":13.2,"profit_millions":723.0,"profit_billions":0.7}, {"name":"CarMax","rank":232,"year":2015,"industry":"Automotive Retailing, Services","sector":"Retailing","headquarters_state":"VA","headquarters_city":"Richmond","latitude":37.5385087,"longitude":-77.43428,"employees":20171.0,"market_value_millions":14493.0,"market_value_billions":14.5,"revenue_millions":13122.0,"revenue_billions":13.1,"profit_millions":493.0,"profit_billions":0.5}, {"name":"Texas Instruments","rank":233,"year":2015,"industry":"Semiconductors and Other Electronic Components","sector":"Technology","headquarters_state":"TX","headquarters_city":"Dallas","latitude":32.7762719,"longitude":-96.7968559,"employees":31003.0,"market_value_millions":59881.0,"market_value_billions":59.9,"revenue_millions":13045.0,"revenue_billions":13.0,"profit_millions":2821.0,"profit_billions":2.8}, {"name":"WellCare Health Plans","rank":234,"year":2015,"industry":"Health Care: Insurance and Managed Care","sector":"Health Care","headquarters_state":"FL","headquarters_city":"Tampa","latitude":27.9477595,"longitude":-82.458444,"employees":6700.0,"market_value_millions":4020.0,"market_value_billions":4.0,"revenue_millions":12960.0,"revenue_billions":13.0,"profit_millions":64.0,"profit_billions":0.1}, {"name":"Marsh & McLennan","rank":235,"year":2015,"industry":"Diversified Financials","sector":"Financials","headquarters_state":"NY","headquarters_city":"New York","latitude":40.7127281,"longitude":-74.0060152,"employees":57000.0,"market_value_millions":30199.0,"market_value_billions":30.2,"revenue_millions":12951.0,"revenue_billions":13.0,"profit_millions":1465.0,"profit_billions":1.5}, {"name":"Consolidated Edison","rank":236,"year":2015,"industry":"Utilities: Gas and Electric","sector":"Energy","headquarters_state":"NY","headquarters_city":"New York","latitude":40.7127281,"longitude":-74.0060152,"employees":14601.0,"market_value_millions":17866.0,"market_value_billions":17.9,"revenue_millions":12919.0,"revenue_billions":12.9,"profit_millions":1092.0,"profit_billions":1.1}, {"name":"Oneok","rank":237,"year":2015,"industry":"Pipelines","sector":"Energy","headquarters_state":"OK","headquarters_city":"Tulsa","latitude":36.1563122,"longitude":-95.9927516,"employees":2269.0,"market_value_millions":10053.0,"market_value_billions":10.1,"revenue_millions":12836.0,"revenue_billions":12.8,"profit_millions":314.0,"profit_billions":0.3}, {"name":"Visa","rank":238,"year":2015,"industry":"Financial Data Services","sector":"Business Services","headquarters_state":"CA","headquarters_city":"Foster City","latitude":37.5600336,"longitude":-122.2688522,"employees":9500.0,"market_value_millions":160621.0,"market_value_billions":160.6,"revenue_millions":12702.0,"revenue_billions":12.7,"profit_millions":5438.0,"profit_billions":5.4}, {"name":"Jacobs Engineering Group","rank":239,"year":2015,"industry":"Engineering & Construction","sector":"Engineering & Construction","headquarters_state":"CA","headquarters_city":"Pasadena","latitude":34.1476507,"longitude":-118.1441551,"employees":59900.0,"market_value_millions":5794.0,"market_value_billions":5.8,"revenue_millions":12695.0,"revenue_billions":12.7,"profit_millions":328.0,"profit_billions":0.3}, {"name":"CSX","rank":240,"year":2015,"industry":"Railroads","sector":"Transportation","headquarters_state":"FL","headquarters_city":"Jacksonville","latitude":30.3321838,"longitude":-81.655651,"employees":31511.0,"market_value_millions":32842.0,"market_value_billions":32.8,"revenue_millions":12669.0,"revenue_billions":12.7,"profit_millions":1927.0,"profit_billions":1.9}, {"name":"Entergy","rank":241,"year":2015,"industry":"Utilities: Gas and Electric","sector":"Energy","headquarters_state":"LA","headquarters_city":"New Orleans","latitude":29.9759983,"longitude":-90.0782127,"employees":13393.0,"market_value_millions":13988.0,"market_value_billions":14.0,"revenue_millions":12495.0,"revenue_billions":12.5,"profit_millions":941.0,"profit_billions":0.9}, {"name":"Facebook","rank":242,"year":2015,"industry":"Internet Services and Retailing","sector":"Technology","headquarters_state":"CA","headquarters_city":"Menlo Park","latitude":37.4519671,"longitude":-122.177992,"employees":9199.0,"market_value_millions":230121.0,"market_value_billions":230.1,"revenue_millions":12466.0,"revenue_billions":12.5,"profit_millions":2940.0,"profit_billions":2.9}, {"name":"Dominion Resources","rank":243,"year":2015,"industry":"Utilities: Gas and Electric","sector":"Energy","headquarters_state":"VA","headquarters_city":"Richmond","latitude":37.5385087,"longitude":-77.43428,"employees":14400.0,"market_value_millions":41681.0,"market_value_billions":41.7,"revenue_millions":12436.0,"revenue_billions":12.4,"profit_millions":1310.0,"profit_billions":1.3}, {"name":"Leucadia National","rank":244,"year":2015,"industry":"Food Production","sector":"Food, Beverages & Tobacco","headquarters_state":"NY","headquarters_city":"New York","latitude":40.7127281,"longitude":-74.0060152,"employees":13082.0,"market_value_millions":8173.0,"market_value_billions":8.2,"revenue_millions":12407.0,"revenue_billions":12.4,"profit_millions":208.0,"profit_billions":0.2}, {"name":"Toys R Us","rank":245,"year":2015,"industry":"Specialty Retailers: Other","sector":"Retailing","headquarters_state":"NJ","headquarters_city":"Wayne","latitude":38.4251958,"longitude":-88.4197678,"employees":66000.0,"market_value_millions":null,"market_value_billions":null,"revenue_millions":12361.0,"revenue_billions":12.4,"profit_millions":-292.0,"profit_billions":-0.3}, {"name":"DTE Energy","rank":246,"year":2015,"industry":"Utilities: Gas and Electric","sector":"Energy","headquarters_state":"MI","headquarters_city":"Detroit","latitude":42.3315509,"longitude":-83.0466403,"employees":10000.0,"market_value_millions":14466.0,"market_value_billions":14.5,"revenue_millions":12301.0,"revenue_billions":12.3,"profit_millions":905.0,"profit_billions":0.9}, {"name":"Ameriprise Financial","rank":247,"year":2015,"industry":"Diversified Financials","sector":"Financials","headquarters_state":"MN","headquarters_city":"Minneapolis","latitude":44.9772995,"longitude":-93.2654692,"employees":12209.0,"market_value_millions":23854.0,"market_value_billions":23.9,"revenue_millions":12296.0,"revenue_billions":12.3,"profit_millions":1619.0,"profit_billions":1.6}, {"name":"VF","rank":248,"year":2015,"industry":"Apparel","sector":"Apparel","headquarters_state":"NC","headquarters_city":"Greensboro","latitude":36.0726355,"longitude":-79.7919754,"employees":59697.0,"market_value_millions":32044.0,"market_value_billions":32.0,"revenue_millions":12282.0,"revenue_billions":12.3,"profit_millions":1048.0,"profit_billions":1.0}, {"name":"Praxair","rank":249,"year":2015,"industry":"Chemicals","sector":"Chemicals","headquarters_state":"CT","headquarters_city":"Danbury","latitude":41.394817,"longitude":-73.4540111,"employees":27780.0,"market_value_millions":34847.0,"market_value_billions":34.8,"revenue_millions":12273.0,"revenue_billions":12.3,"profit_millions":1694.0,"profit_billions":1.7}, {"name":"J.C. Penney","rank":250,"year":2015,"industry":"General Merchandisers","sector":"Retailing","headquarters_state":"TX","headquarters_city":"Plano","latitude":33.0136764,"longitude":-96.6925096,"employees":114000.0,"market_value_millions":2566.0,"market_value_billions":2.6,"revenue_millions":12257.0,"revenue_billions":12.3,"profit_millions":-771.0,"profit_billions":-0.8}, {"name":"Automatic Data Processing","rank":251,"year":2015,"industry":"Diversified Outsourcing Services","sector":"Business Services","headquarters_state":"NJ","headquarters_city":"Roseland","latitude":37.278847,"longitude":-94.84409136,"employees":61000.0,"market_value_millions":40692.0,"market_value_billions":40.7,"revenue_millions":12220.0,"revenue_billions":12.2,"profit_millions":1516.0,"profit_billions":1.5}, {"name":"L-3 Communications","rank":252,"year":2015,"industry":"Aerospace & Defense","sector":"Aerospace & Defense","headquarters_state":"NY","headquarters_city":"New York","latitude":40.7127281,"longitude":-74.0060152,"employees":45000.0,"market_value_millions":10415.0,"market_value_billions":10.4,"revenue_millions":12124.0,"revenue_billions":12.1,"profit_millions":664.0,"profit_billions":0.7}, {"name":"CDW","rank":253,"year":2015,"industry":"Information Technology Services","sector":"Technology","headquarters_state":"IL","headquarters_city":"Vernon Hills","latitude":42.2204892,"longitude":-87.9803604,"employees":7211.0,"market_value_millions":6425.0,"market_value_billions":6.4,"revenue_millions":12075.0,"revenue_billions":12.1,"profit_millions":245.0,"profit_billions":0.2}, {"name":"Guardian Life Ins. Co. of America","rank":254,"year":2015,"industry":"Insurance: Life, Health (Mutual)","sector":"Financials","headquarters_state":"NY","headquarters_city":"New York","latitude":40.7127281,"longitude":-74.0060152,"employees":5000.0,"market_value_millions":null,"market_value_billions":null,"revenue_millions":11909.0,"revenue_billions":11.9,"profit_millions":445.0,"profit_billions":0.4},